stop_id,stop_code,stop_name,stop_lat,stop_lon,location_type,parent_station,zone_id
ESTACION_7109,7109,CAD,4.6231563486389753,-74.084448494340748,1,,0
ESTACION_6103,6103,CAN,4.6470502749562037,-74.099203651904247,1,,0
ESTACION_7010,7010,Bosa,4.5968326934842132,-74.181266989237642,1,,0
ESTACION_4108,4108,Polo,4.6707257598248253,-74.064842777686863,1,,0
ESTACION_7009,7009,SENA,4.5973236909293318,-74.110770719386778,1,,0
ESTACION_9105,9105,Fucha,4.5828832581168264,-74.099563054236569,1,,0
ESTACION_9118,9118,Marly,4.6377299281133855,-74.0667773907653,1,,0
ESTACION_9103,9103,Olaya,4.5788315833862949,-74.107553272262209,1,,0
ESTACION_2201,2201,Prado,4.7145073966151507,-74.052613376824738,1,,0
ESTACION_9116,9116,AV. 39,4.6270624495416905,-74.06869256562652,1,,0
ESTACION_4103,4103,Ferias,4.690931927244649,-74.084660953618808,1,,0
ESTACION_9121,9121,Flores,4.654818049198628,-74.063092599609035,1,,0
ESTACION_8001,8001,Parque,4.5684427892569452,-74.135543982018334,1,,0
ESTACION_2302,2302,Virrey,4.6763868227764256,-74.0589584347993,1,,0
ESTACION_2200,2200,Alcalá,4.7214744360344758,-74.051443420634484,1,,0
ESTACION_4102,4102,Boyacá,4.6939350456625171,-74.087195423742656,1,,0
ESTACION_9107,9107,Hortúa,4.59075782144327,-74.090327459924239,1,,0
ESTACION_2304,2304,Héroes,4.6686713870791277,-74.060240582739567,1,,0
ESTACION_6001,6001,Modelia,4.6751503838702346,-74.117231950130943,1,,0
ESTACION_9001,9001,Molinos,4.5574204704869263,-74.121797075097618,1,,0
ESTACION_9106,9106,Nariño,4.58639355677205,-74.093844651983957,1,,0
ESTACION_7001,7001,Perdomo,4.5957845058730769,-74.164964469406087,1,,0
ESTACION_5105,5105,Pradera,4.6285040317390758,-74.118613532830537,1,,0
ESTACION_9101,9101,Quiroga,4.5768027896581884,-74.114385027051767,1,,0
ESTACION_9003,9003,Socorro,4.5646692001397824,-74.1255818233073,1,,0
ESTACION_7004,7004,Venecia,4.59555425962897,-74.142846283019963,1,,0
ESTACION_5100,5100,Banderas,4.6313262182784909,-74.145663262271839,1,,0
ESTACION_9111,9111,Calle 19,4.6078686001656051,-74.076882010352435,1,,0
ESTACION_9113,9113,Calle 22,4.6117908323433037,-74.074631215886214,1,,0
ESTACION_9114,9114,Calle 26,4.6168038731558392,-74.072158119531167,1,,0
ESTACION_9115,9115,Calle 34,4.6216270533894548,-74.069746716463172,1,,0
ESTACION_9117,9117,Calle 45,4.6316930640134446,-74.0678449532298,1,,0
ESTACION_9119,9119,Calle 57,4.6432721410050792,-74.065811756367253,1,,0
ESTACION_9120,9120,Calle 63,4.6477054968416871,-74.064995425124266,1,,0
ESTACION_9122,9122,Calle 72,4.658444160271852,-74.062061876515344,1,,0
ESTACION_9123,9123,Calle 76,4.6632296280299093,-74.061249134212929,1,,0
ESTACION_2303,2303,Calle 85,4.6715319362083383,-74.05980068259592,1,,0
ESTACION_9002,9002,Consuelo,4.5600931324899827,-74.1238384633273,1,,0
ESTACION_9108,9108,Hospital,4.5951980837505735,-74.086277836097977,1,,0
ESTACION_7002,7002,Madelena,4.5962804946730795,-74.156991232035708,1,,0
ESTACION_5101,5101,Mandalay,4.6308667531325538,-74.141408357338648,1,,0
ESTACION_5103,5103,Marsella,4.62968378877692,-74.130386434728109,1,,0
ESTACION_2103,2103,Mazurén,4.735388421338107,-74.049058286177484,1,,0
ESTACION_4001,4001,Quirigua,4.7067448100433733,-74.108842307996483,1,,0
ESTACION_9104,9104,Restrepo,4.5820086321450306,-74.101384644341863,1,,0
ESTACION_3013,3013,Rionegro,4.6803838092938008,-74.064814240011017,1,,0
ESTACION_2502,2502,Terminal,4.769015311169496,-74.043498308253518,1,,0
ESTACION_2101,2101,Toberín,4.7471252958330732,-74.047160259467759,1,,0
ESTACION_7103,7103,AV. Chile,4.666401654325675,-74.0746607178459,1,,0
ESTACION_6100,6100,AV. Rojas,4.6622214426953228,-74.108941036993713,1,,0
ESTACION_7005,7005,Alquería,4.5942648433539084,-74.134276059976486,1,,0
ESTACION_2300,2300,Calle 100,4.6845005035684784,-74.057665557560867,1,,0
ESTACION_2205,2205,Calle 106,4.69409013104167,-74.056011896564016,1,,0
ESTACION_2202,2202,Calle 127,4.7045017818536827,-74.05429053795072,1,,0
ESTACION_2105,2105,Calle 142,4.7268238015309674,-74.050545456988345,1,,0
ESTACION_2104,2104,Calle 146,4.7313812857526116,-74.049739515854284,1,,0
ESTACION_2102,2102,Calle 161,4.7421348575912656,-74.047948743876233,1,,0
ESTACION_2001,2001,Calle 187,4.763355906152074,-74.0444825956385,1,,0
ESTACION_7112,7112,Comuneros,4.6041988392046909,-74.099917587516686,1,,0
ESTACION_3004,3004,Gratamira,4.72768455134098,-74.074692901641882,1,,0
ESTACION_14005,14005,Las Aguas,4.6024597974558183,-74.06840019468946,1,,0
ESTACION_10004,10004,Policarpa,4.5864652400897512,-74.086802862941838,1,,0
ESTACION_4000,4000,Portal 80,4.7096654444814705,-74.110685541375176,1,,0
ESTACION_10008,10008,San Diego,4.611267124617954,-74.071256746092033,1,,0
ESTACION_7503,7503,San Mateo,4.5862440455491953,-74.204833046599646,1,,0
ESTACION_7003,7003,Sevillana,4.5951119441319594,-74.147501939292,1,,0
ESTACION_4104,4104,Avenida 68,4.6857796584558065,-74.080580176299293,1,,0
ESTACION_8002,8002,Biblioteca,4.5703670621481862,-74.130455592103218,1,,0
ESTACION_12001,12001,Carrera 43,4.622870275756001,-74.101540216163727,1,,0
ESTACION_4106,4106,Carrera 47,4.677963078270734,-74.073652671029564,1,,0
ESTACION_4105,4105,Carrera 53,4.6817655850522337,-74.077420834775936,1,,0
ESTACION_4002,4002,Carrera 90,4.7046692054725723,-74.104677928195414,1,,0
ESTACION_10007,10007,Las Nieves,4.6058410739431475,-74.074480512168847,1,,0
ESTACION_7505,7505,León XIII,4.59219950700325,-74.193156668533774,1,,0
ESTACION_6002,6002,Normandía,4.668815857864832,-74.113169701315059,1,,0
ESTACION_7110,7110,Paloquemao,4.6167525702308847,-74.089711869467152,1,,0
ESTACION_3003,3003,21 ángeles,4.7355704162269285,-74.08114655520761,1,,0
ESTACION_12002,12002,CDS  Cra 32,4.6160951267740051,-74.093961556554888,1,,0
ESTACION_10001,10001,Country Sur,4.5710742599761147,-74.09875915519828,1,,0
ESTACION_3001,3001,La Campiña,4.742625981096948,-74.091219558252362,1,,0
ESTACION_7506,7506,La Despensa,4.594580330797017,-74.188212188468043,1,,0
ESTACION_2204,2204,Pepe Sierra,4.6979938578227634,-74.055346772073747,1,,0
ESTACION_3000,3000,Portal Suba,4.7469927318125427,-74.094252353902,1,,0
ESTACION_90004,90004,Portal Usme,4.5318440992920745,-74.119447767353634,1,,0
ESTACION_3010,3010,Puentelargo,4.6935310406482404,-74.067195828530714,1,,0
ESTACION_3014,3014,San Martín,4.6764067144666122,-74.067174873419162,1,,0
ESTACION_7107,7107,U. Nacional,4.6370909542037442,-74.079319903901265,1,,0
ESTACION_10002,10002,AV. 1° Mayo,4.5766694224667095,-74.093898497187638,1,,0
ESTACION_4003,4003,Avenida Cali,4.7024067673953107,-74.100251855737369,1,,0
ESTACION_10005,10005,Bicentenario,4.5931389990330338,-74.082471229753935,1,,0
ESTACION_9100,9100,Calle 40 Sur,4.5757961191476744,-74.120058729219579,1,,0
ESTACION_14001,14001,De La Sabana,4.6053290888535781,-74.081837561917808,1,,0
ESTACION_6104,6104,Gobernación,4.6425056534677624,-74.096342380010867,1,,0
ESTACION_5001,5001,Patio Bonito,4.6332236795981192,-74.164722181286976,1,,0
ESTACION_8000,8000,Portal Tunal,4.5709117239427721,-74.139574742662347,1,,0
ESTACION_7113,7113,Santa Isabel,4.6015881839831962,-74.102755306924422,1,,0
ESTACION_9004,9004,Santa Lucía,4.5709151878151388,-74.124785174918458,1,,0
ESTACION_3012,3012,Suba - CL 95,4.6846886997909643,-74.063260240000986,1,,0
ESTACION_7108,7108,AV. El Dorado,4.6301834436324922,-74.079920843826955,1,,0
ESTACION_7101,7101,La Castellana,4.6754704607838367,-74.064711843605664,1,,0
ESTACION_14004,14004,Museo del Oro,4.6011822858670337,-74.072928242848576,1,,0
ESTACION_12000,12000,Puente Aranda,4.6257791706948748,-74.104807346849739,1,,0
ESTACION_10006,10006,San Victorino,4.6006821119843142,-74.0776052057107,1,,0
ESTACION_3002,3002,Suba - TV. 91,4.7389347720089638,-74.08701342769271,1,,0
ESTACION_6111,6111,Universidades,4.6048826144107506,-74.067111354739438,1,,0
ESTACION_6109,6109,Centro Memoria,4.6212116106425141,-74.076877838137435,1,,0
ESTACION_4101,4101,Minuto de Dios,4.6966532031844457,-74.0915997884289,1,,0
ESTACION_7105,7105,Movistar Arena,4.6498366113620682,-74.078388309073247,1,,0
ESTACION_10009,10009,Museo Nacional,4.6153770501416647,-74.069127102819579,1,,0
ESTACION_7102,7102,NQS - Calle 75,4.6699867072486843,-74.07159482956844,1,,0
ESTACION_7000,7000,Portal del Sur,4.5973510297605351,-74.169328655125014,1,,0
ESTACION_6105,6105,Quinta Paredes,4.6374541082988205,-74.093077480809427,1,,0
ESTACION_6106,6106,Recinto Ferial,4.6343468170898321,-74.089830824440256,1,,0
ESTACION_7111,7111,Ricaurte (NQS),4.6115099815596805,-74.094044328151412,1,,0
ESTACION_90007,90007,Suba Calle 100,4.6870905973212684,-74.064468462337658,1,,0
ESTACION_9109,9109,Tercer Milenio,4.5981369565972976,-74.083862946010242,1,,0
ESTACION_5005,5005,Transversal 86,4.6341594208428427,-74.151957037301315,1,,0
ESTACION_4107,4107,Escuela Militar,4.6755458133560568,-74.069852931149583,1,,0
ESTACION_7007,7007,NQS - CL 38A S.,4.593792134515402,-74.123777984977011,1,,0
ESTACION_6000,6000,Portal Eldorado,4.6820834743471176,-74.121692643808885,1,,0
ESTACION_7104,7104,Simón Bolívar,4.6571673577443962,-74.077729192367315,1,,0
ESTACION_3005,3005,Suba  Av Boyaca,4.721407873730862,-74.0747787361907,1,,0
ESTACION_3011,3011,Suba  Calle 100,4.6905501015987126,-74.065716368212335,1,,0
ESTACION_12007,12007,Zona Industrial,4.620222581663171,-74.098615406790444,1,,0
ESTACION_5107,5107,Distrito Grafiti,4.6278918773218933,-74.111673800556673,1,,0
ESTACION_3007,3007,Humedal Córdoba,4.706652777038455,-74.071228938469872,1,,0
ESTACION_3006,3006,Niza - Calle 127,4.7119735694631615,-74.072322399204921,1,,0
ESTACION_5000,5000,Portal Américas,4.6295689275517766,-74.173221101019422,1,,0
ESTACION_2000,2000,Portal del Norte,4.7554763181170765,-74.0458861054849,1,,0
ESTACION_12003,12003,Ricaurte (CL 13),4.6129310936595305,-74.090418369811189,1,,0
ESTACION_5002,5002,Biblioteca Tintal,4.6379986245535276,-74.159387053635612,1,,0
ESTACION_7006,7006,General Santander,4.5935628061814446,-74.129602824434272,1,,0
ESTACION_7008,7008,NQS Calle 30 Sur ,4.5947394488695368,-74.118119670051669,1,,0
ESTACION_7200,7200,Tygua - San José,4.5997823635305464,-74.088776916066792,1,,0
ESTACION_90005,90005,Av. Suba Calle 116,4.6993631615907718,-74.0699067213811,1,,0
ESTACION_6108,6108,Concejo de Bogotá,4.6260101766830788,-74.080381865340016,1,,0
ESTACION_6101,6101,El Tiempo - Maloka,4.6570108383933349,-74.105658782939926,1,,0
ESTACION_10000,10000,Portal 20 de Julio,4.5656473259336989,-74.097125593084982,1,,0
ESTACION_6102,6102,Salitre - El Greco,4.6508495826872407,-74.10167965925919,1,,0
ESTACION_12004,12004,San Facon - KR. 22,4.609636770353438,-74.086697876441633,1,,0
ESTACION_4100,4100,Granja - Carrera 77,4.6987088600238822,-74.095379341782987,1,,0
ESTACION_7201,7201,Guatoque - Veraguas,4.6040365636024214,-74.094782787417969,1,,0
ESTACION_14003,14003,AV. Jiménez (CL 13),4.6029646978321539,-74.0790340644591,1,,0
ESTACION_10003,10003,Ciudad Jardín - UAN,4.58163460633792,-74.09021538510008,1,,0
ESTACION_6107,6107,Ciudad Universitaria,4.6308898263707965,-74.083579064916478,1,,0
ESTACION_10010,10010,Estación San Bernardo,4.5902655575977329,-74.0841963321596,1,,0
ESTACION_7504,7504,Terreros Hospital C.V.,4.5889586032859668,-74.199436952332661,1,,0
ESTACION_5102,5102,Av Américas -Av. Boyacá,4.6301070544241529,-74.134196746533064,1,,0
ESTACION_9110,9110,AV. Jiménez (AV. Caracas),4.6027923811665916,-74.080499684118735,1,,0
ESTACION_7106,7106,Campín - Universidad Antonio Nariño,4.6459269347024419,-74.07868419427011,1,,0
T_11561_STOP,BD-382A,CAC,4.6927977843497626,-74.135988671493578,0,,0
T_11409_STOP,BD-016A,K7- CL66,4.6504772831282013,-74.0585691244011,0,,0
T_11416_STOP,BD-002A,K7 - CL33,4.6205162828087758,-74.067527630379359,0,,0
T_11377_STOP,BD-001A,K7 - CL34,4.6221541155024237,-74.066682296155989,0,,0
T_11415_STOP,BD-004A,K7 - CL36,4.6243147829125633,-74.066222129477907,0,,0
T_11378_STOP,BD-003A,K7 - CL37,4.6249794490468528,-74.065888629144325,0,,0
T_13073_STOP,BD-005B,K7 - CL40,4.6284525029210322,-74.065055998900732,0,,0
T_13076_STOP,BD-006B,K7 - CL40,4.6284724492693536,-74.065234462078962,0,,0
T_11414_STOP,BD-006A,K7 - CL40,4.6280409591774152,-74.0653451108971,0,,0
T_11413_STOP,BD-008A,K7 - CL45,4.63209761633723,-74.064098795105821,0,,0
T_11380_STOP,BD-007A,K7 - CL45,4.6320892830955742,-74.063935794857557,0,,0
T_11381_STOP,BD-009A,K7 - CL50,4.6370467828611508,-74.06339729379944,0,,0
T_11412_STOP,BD-010A,K7 - CL51,4.6379231161573049,-74.063366460611746,0,,0
T_11411_STOP,BD-012A,K7 - CL55,4.6418401162619123,-74.062406460246663,0,,0
T_13077_STOP,BD-012B,K7 - CL56,4.6427376721873115,-74.062139723254973,0,,0
T_11382_STOP,BD-011A,K7 - CL57,4.6430127833682757,-74.061882793313359,0,,0
T_11410_STOP,BD-014A,K7 - CL60,4.6461246163604528,-74.0609467926268,0,,0
T_13078_STOP,BD-014B,K7 - CL61,4.6463807830352541,-74.060701959130014,0,,0
T_11383_STOP,BD-013A,K7 - CL61,4.64654661633145,-74.060398125801683,0,,0
T_13079_STOP,BD-016B,K7 - CL66,4.6505273898995094,-74.058509318403821,0,,0
T_11384_STOP,BD-015A,K7 - CL66,4.6503526160697648,-74.058460291421923,0,,0
T_13080_STOP,BD-018A,K7 - CL71,4.6530572831902868,-74.056453789673654,0,,0
T_11408_STOP,BD-018B,K7 - CL71,4.6536841206284389,-74.056060890812333,0,,0
T_13075_STOP,BD-019B,K7 - CL73,4.6558979509694582,-74.054807831065744,0,,0
T_11386_STOP,BD-019A,K7 - CL73,4.6565341592477072,-74.054362865195017,0,,0
T_11511_STOP,BD-029B,K7 - CL74,4.6573182832916125,-74.054036454740654,0,,0
T_13081_STOP,BD-029A,K7 - CL74,4.6570693059466874,-74.0543515756677,0,,0
T_11675_STOP,BD-031A,K7 - CL78,4.6601141166875211,-74.051427119664723,0,,0
T_11704_STOP,BD-030A,K7 - CL79,4.6605459500317163,-74.051208119515891,0,,0
T_11510_STOP,BD-032A,K7 - CL81,4.6628211167468878,-74.049050451410352,0,,0
T_11802_STOP,BD-033A,K7 - CL82,4.6623536167409751,-74.049320784922543,0,,0
T_11509_STOP,BD-034A,K7 - CL86,4.6668232835059484,-74.046090449409277,0,,0
T_11595_STOP,BD-035A,K7 - CL87,4.6658274501462476,-74.046397449616165,0,,0
T_11508_STOP,BD-036A,K7 - CL90,4.6692642835639,-74.044956948650679,0,,0
T_11596_STOP,BD-037A,K7 - CL92,4.6706991169335854,-74.044069281377773,0,,0
T_11597_STOP,BD-039A,K7 - CL94,4.6745559503569458,-74.041305279501827,0,,0
T_11507_STOP,BD-038A,K7 - CL94,4.6750554503656039,-74.0410719460136,0,,0
T_12923_STOP,12923,San Diego,4.611194220015828,-74.071308462004708,0,,0
T_12922_STOP,12922,San Diego,4.6101668597174168,-74.071867447605086,0,,0
T_12925_STOP,12925,San Diego,4.610384055164503,-74.0718107877974,0,,0
T_12924_STOP,12924,San Diego,4.611362795478235,-74.071291008304343,0,,0
T_11690_STOP,BD-065A,CL134 - K7,4.711922117916906,-74.029832271617764,0,,0
T_11522_STOP,BD-020A,K11 - CL75,4.660412283376826,-74.056576623097342,0,,0
T_11705_STOP,BD-047A,K11 - CL78,4.6632331167723331,-74.054638288481087,0,,0
T_11519_STOP,BD-044A,K11 - CL93,4.6747021170358,-74.04747345035706,0,,0
T_11518_STOP,BD-043A,K11 - CL95,4.6794789504819265,-74.045049948721982,0,,0
T_11395_STOP,BD-028A,K13 - CL37,4.6256356162036143,-74.067500463100245,0,,0
T_11392_STOP,BD-025A,K13 - CL52,4.6394494495001721,-74.065217628796645,0,,0
T_11391_STOP,BD-024A,K13 - CL55,4.642663949228786,-74.064696628303366,0,,0
T_11390_STOP,BD-023A,K13 - CL60,4.6472796160504117,-74.063891461263808,0,,0
T_11389_STOP,BD-022A,K13 - CL66,4.6529554494760337,-74.062999127684535,0,,0
T_11598_STOP,BD-041A,K7 - CL100,4.6804104504911921,-74.037680443692736,0,,0
T_11676_STOP,BD-052A,K7 - CL106,4.6856841008752435,-74.035283859667857,0,,0
T_11701_STOP,BD-054A,K7 - CL110,4.6895067840393665,-74.034847775079228,0,,0
T_11678_STOP,BD-053A,K7 - CL110,4.68895711736081,-74.034565441552061,0,,0
T_13082_STOP,BD-056A,K7 - CL116,4.6925828550487072,-74.033757919124383,0,,0
T_11681_STOP,BD-055A,K7 - CL116,4.6933637841296223,-74.033133440558743,0,,0
T_11699_STOP,BD-056B,K7 - CL116,4.6927306174492305,-74.03365794092494,0,,0
T_11697_STOP,BD-058B,K7 - CL118,4.6954464508462781,-74.032414773399935,0,,0
T_13083_STOP,BD-058A,K7 - CL118,4.6952147651004443,-74.032591393417931,0,,0
T_11696_STOP,BD-060A,K7 - CL124,4.70094078430702,-74.028757270850193,0,,0
T_11684_STOP,BD-059A,K7 - CL124,4.7000872842806434,-74.0286786041267,0,,0
T_11688_STOP,BD-063A,K7 - CL130,4.7089177774373514,-74.0284825191866,0,,0
T_11692_STOP,BD-064A,K7 - CL132,4.7111927845592767,-74.029184104489246,0,,0
T_13074_STOP,BD-017A,K7 - CL70A,4.6539225559239208,-74.055733611981466,0,,0
T_11385_STOP,BD-017B,K7 - CL70A,4.6538032847050319,-74.055756630282971,0,,0
T_11702_STOP,BD-040A,K7 - CL97A,4.6781556171009093,-74.039766611782426,0,,0
Z_55647_STOP,325A13,AC 1 - KR 7,4.5868508937767833,-74.0821658376368,0,,0
Z_55188_STOP,005A13,AC 1 - KR 9,4.5887763009008395,-74.084027562515615,0,,0
Z_58208_STOP,517A13,AC 1 - KR 9,4.5889602939952807,-74.084558695437337,0,,0
Z_57702_STOP,861A00,AC 1- KR 11,4.5899192370431834,-74.085757847916511,0,,0
Z_56212_STOP,004A01,AC 153 - 7F,4.7293947685576025,-74.0281167874438,0,,0
Z_55718_STOP,416A13,AC 6 - KR 0,4.589900878625742,-74.072639288878577,0,,0
Z_57792_STOP,633A00,AC 6 - KR 5,4.5902664423014761,-74.077940251230658,0,,0
Z_55714_STOP,412A13,AC 6 - KR 5,4.59008876059783,-74.07790120661717,0,,0
Z_56002_STOP,575A13,AC 6 - KR 7,4.5910882368540387,-74.079886844395844,0,,0
Z_56003_STOP,576A13,AC 6 - KR 7,4.59091623685445,-74.079898844406344,0,,0
Z_57919_STOP,717A00,AC 6 - KR 9,4.5925208032825688,-74.081369556156986,0,,0
T_112_STOP,203A05,AC 63 - 105,4.6969106177715441,-74.127116166508628,0,,0
Z_52082_STOP,115A11,AC1 - KR 18,4.5930412909771894,-74.093015480826026,0,,0
T_12407_STOP,12407,AC80 - K106,4.7151174882361824,-74.1165677809961,0,,0
T_12415_STOP,12415,AC80 - K110,4.7168073513824664,-74.117792955682987,0,,0
T_12413_STOP,12413,AC80 - K114,4.7232742354917177,-74.122608651452637,0,,0
Z_58153_STOP,331A13,AK 7 - CL 2,4.5893456527767782,-74.080255546802249,0,,0
Z_55614_STOP,025A02,CL 138 - 74,4.7307009454977837,-74.07170506118436,0,,0
Z_58207_STOP,478A13,CL 2 - KR 8,4.589464011986605,-74.081292643342863,0,,0
Z_55664_STOP,354A13,CL 7 - KR 0,4.5920441890594166,-74.0719515980363,0,,0
Z_57679_STOP,452A00,CL 7 - KR 1,4.5925286781075787,-74.071957906538728,0,,0
Z_55665_STOP,358A13,CL 7 - KR 4,4.5938988579162077,-74.074864190349018,0,,0
T_11520_STOP,BD-045A,K11 - CL86A,4.6700901169317,-74.05003011873869,0,,0
T_11394_STOP,BD-027A,K13 - CL43A,4.6311529491458359,-74.066607129953,0,,0
T_13048_STOP,BD-049A,K7 - CL 100,4.6797134349299965,-74.03848529634439,0,,0
T_11683_STOP,BD-057A,K7 - CL119B,4.6968594508823474,-74.031259105928015,0,,0
T_11686_STOP,BD-061A,K7 - CL127B,4.7052201177450543,-74.028461937312926,0,,0
T_11694_STOP,BD-062A,K7 - CL127B,4.7052505782305811,-74.028729715331011,0,,0
Z_55655_STOP,338A13,KR 2 - CL 3,4.58798082624102,-74.074606362344028,0,,0
Z_55599_STOP,283A13,KR 3 - AC 1,4.5827628476151423,-74.07840342679178,0,,0
Z_55598_STOP,281A13,KR 3 - CL 1,4.5822586774671628,-74.0794095102916,0,,0
Z_57791_STOP,632A00,KR 4 - CL 6,4.5926912666979041,-74.07492759838469,0,,0
Z_57680_STOP,455A00,KR 4 - CL 9,4.5949060937173654,-74.073682195785182,0,,0
Z_55708_STOP,405A13,KR 5 - CL 5,4.5919944286787757,-74.076346153126721,0,,0
Z_57014_STOP,114A00,KR 5 - CL 8,4.59495775120497,-74.074740308418924,0,,0
Z_58206_STOP,473A13,KR 9 - CL 2,4.5903242429870392,-74.082699364253116,0,,0
Z_57943_STOP,57943,Portal Usme,4.5316517773194223,-74.119490455634846,0,,0
Z_57931_STOP,57931,Portal Usme,4.5312770874933275,-74.119448970524587,0,,0
Z_55615_STOP,027A02,TV 75 - 138,4.7313332349585524,-74.073564241823775,0,,0
Z_53446_STOP,087A12,AC 1 - AK 10,4.5896481383434828,-74.085666854464918,0,,0
Z_53445_STOP,086A12,AC 1 - KR 12,4.5906424083038564,-74.08722343575198,0,,0
Z_52061_STOP,114A11,AC 1 - KR 19,4.5935605637817041,-74.094976630929864,0,,0
Z_52059_STOP,113A11,AC 1 - KR 22,4.5941102373372011,-74.096784854231032,0,,0
Z_52060_STOP,113B11,AC 1 - KR 24,4.5945742345472924,-74.098213489355089,0,,0
Z_55648_STOP,326A13,AC 1 - KR 5A,4.5852586621085356,-74.080548820433265,0,,0
Z_50382_STOP,247A00,AC 19 - KR 4,4.60370053513883,-74.069481348957467,0,,0
Z_57420_STOP,247D00,AC 19 - KR 5,4.6048716654704931,-74.0711258994024,0,,0
Z_57390_STOP,245B00,AC 19 - KR 5,4.60476411415125,-74.070474714046171,0,,0
Z_57419_STOP,247C00,AC 19 - KR 5,4.6046946749069955,-74.07089030335068,0,,0
Z_57388_STOP,244B00,AC 19 - KR 7,4.6056641256814848,-74.071914947933124,0,,0
Z_57389_STOP,245A00,AC 19 - KR 7,4.6049737127962569,-74.070792221313482,0,,0
Z_50436_STOP,243B00,AC 19 - KR 8,4.6064064359265009,-74.07348677778964,0,,0
Z_57387_STOP,244A00,AC 19 - KR 9,4.6061231247708356,-74.072635068576687,0,,0
Z_57435_STOP,257A00,AC 19 - Kr25,4.6152998644547623,-74.0850773589614,0,,0
Z_57733_STOP,510A00,AC 20 - AK 1,4.6031477916190644,-74.061835333538653,0,,0
Z_57731_STOP,508A00,AC 20 - KR 1,4.6028859844546774,-74.061827340682868,0,,0
Z_56094_STOP,033A07,AC 3 - AK 36,4.6075517379628392,-74.106416586736643,0,,0
Z_53680_STOP,040A08,AC 3 - AK 36,4.6073172374783251,-74.106456859386228,0,,0
Z_53681_STOP,041A08,AC 3 - KR 38,4.6095970590444884,-74.10903187492643,0,,0
Z_56095_STOP,034A07,AC 3 - KR 38,4.60929448679173,-74.108447573602774,0,,0
Z_54695_STOP,551A08,AC 3 - KR 41,4.6113221378469467,-74.110179945264832,0,,0
Z_56100_STOP,039A07,AC 3 - KR 41,4.613300237590205,-74.112205862437548,0,,0
Z_56097_STOP,036A07,AC 3 - KR 56,4.6194760955027894,-74.119234342595362,0,,0
Z_53684_STOP,044A08,AC 3 - KR 60,4.6212377055088361,-74.121525464668821,0,,0
Z_56098_STOP,037A07,AC 3 - KR 60,4.621106843470538,-74.120937990434868,0,,0
Z_56944_STOP,075A00,AC 45 - KR 8,4.6316642359434992,-74.065369834502633,0,,0
Z_57759_STOP,554A00,AC 53 - KR 3,4.6387341577810961,-74.060992563963481,0,,0
Z_57760_STOP,555A00,AC 53 - KR 4,4.6389031918317141,-74.061074726989318,0,,0
Z_56930_STOP,057A00,AC 53 - KR 9,4.6396611175693758,-74.06385919286717,0,,0
Z_56929_STOP,056A00,AC 53 - KR 9,4.6398822878941957,-74.063905237230045,0,,0
Z_56932_STOP,059A00,AC 6 - AK 27,4.6045039292126884,-74.095749522014145,0,,0
Z_56834_STOP,008A00,AC 6 - AK 30,4.6059832371988634,-74.096825853947692,0,,0
Z_56092_STOP,031A07,AC 6 - AK 30,4.6072898998236669,-74.099396532249,0,,0
Z_56889_STOP,043A00,AC 6 - KR 15,4.5978402369538038,-74.08565784765112,0,,0
Z_56934_STOP,061A00,AC 6 - KR 19,4.6002562463282581,-74.0898881233529,0,,0
Z_56888_STOP,042A00,AC 6 - KR 19,4.600838237046549,-74.089878850048748,0,,0
Z_56935_STOP,062A00,AC 6 - KR 22,4.6021644508972273,-74.092570364981967,0,,0
Z_57632_STOP,388A00,AC 6 - KR 23,4.6027542371095675,-74.092603851587427,0,,0
Z_56931_STOP,058A00,AC 6 - KR 26,4.604320237158376,-74.0947828528092,0,,0
Z_55716_STOP,414A13,AC 6 - KR 2A,4.5899268410168039,-74.074940134312783,0,,0
Z_55715_STOP,413A13,AC 6 - KR 2A,4.5897698297967056,-74.074965391518674,0,,0
Z_56319_STOP,115A07,AC 6 - KR 32,4.6087404733177735,-74.100245720430649,0,,0
Z_56295_STOP,111A07,AC 6 - KR 38,4.613208700159162,-74.104060305138546,0,,0
Z_56744_STOP,384A07,AC 6 - KR 38,4.6151715045842945,-74.10489523684177,0,,0
Z_56297_STOP,113A07,AC 6 - KR 38,4.6143501185688294,-74.105162932660718,0,,0
Z_56296_STOP,112A07,AC 6 - KR 40,4.6156876310939259,-74.1055677007218,0,,0
Z_56294_STOP,110A07,AC 6 - KR 41,4.6175264963984866,-74.105965444279789,0,,0
Z_56091_STOP,030A07,AC 6 - TV 44,4.6209355956160989,-74.106441200740974,0,,0
Z_56199_STOP,092A07,AC 6 - TV 47,4.6230275095920295,-74.106760247179153,0,,0
Z_56292_STOP,108A07,AC 6 - TV 49,4.6255476361350585,-74.10715096912682,0,,0
Z_56919_STOP,046A00,AC 63 - KR 8,4.6481539370196678,-74.060428594489423,0,,0
Z_56105_STOP,047A07,AC 8 - KR 73,4.6372437454665469,-74.139543846543361,0,,0
Z_56106_STOP,048A07,AC 8 - KR 73,4.6374940922244576,-74.139323979881013,0,,0
Z_56352_STOP,169A07,AC 8 - KR 78,4.6386813836323526,-74.142507396731659,0,,0
Z_56618_STOP,335A07,AC 8 - KR 84,4.6452111374719873,-74.150158989450148,0,,0
Z_57499_STOP,294A00,AC 82 - KR 9,4.6655517841078238,-74.0508575849674,0,,0
Z_57710_STOP,871A00,AC 94 - KR 9,4.6757082347430385,-74.043219819313563,0,,0
T_12410_STOP,BD-144A,AC80 - K109A,4.7170289515791808,-74.117765494482683,0,,0
T_12411_STOP,140A04,AC80 - K111C,4.7193367849750931,-74.119419662107333,0,,0
T_12414_STOP,12414,AC80 - K112A,4.7195289404007141,-74.1197226935721,0,,0
Z_54053_STOP,444A12,AK 10 - AC 1,4.5888954600344789,-74.085317585897371,0,,0
Z_55950_STOP,526A13,AK 10 - AC 1,4.5887161039660134,-74.08507229906202,0,,0
Z_55951_STOP,527A13,AK 10 - CL 2,4.5915459530451033,-74.083174356678455,0,,0
Z_57843_STOP,813A00,AK 10 - CL 2,4.5916810715526353,-74.0835368184933,0,,0
Z_57899_STOP,676A00,AK 10 - CL 4,4.5937892083635568,-74.081746423254856,0,,0
Z_57864_STOP,784A00,AK 10 - CL 7,4.5963233187326242,-74.080175423349488,0,,0
Z_56940_STOP,068A00,AK 10 - CL 7,4.596443062509719,-74.080405851222082,0,,0
Z_57865_STOP,785A00,AK 10 - CL 9,4.5985330603009045,-74.078729703800235,0,,0
Z_57822_STOP,790A00,AK 10 - CL 9,4.598676719687762,-74.07909813435829,0,,0
Z_57504_STOP,299A00,AK 15 - 72-9,4.6597783378294988,-74.0610836084476,0,,0
Z_51820_STOP,011A11,AK 21 - AC 1,4.593426759200991,-74.0963182828769,0,,0
Z_56836_STOP,010A00,AK 27 - AC 6,4.6054001162494727,-74.094696008788489,0,,0
Z_56837_STOP,010B00,AK 27 - CL 6,4.605932004423444,-74.0943091460306,0,,0
Z_57547_STOP,322A00,AK 27 - CL 9,4.6086435650435087,-74.092143334461056,0,,0
Z_53710_STOP,050A08,AK 50 - CL 1,4.6083041144682593,-74.118248708162952,0,,0
Z_53829_STOP,108A08,AK 50 - CL 1,4.607978106486148,-74.118146374814984,0,,0
Z_56044_STOP,008A07,AK 50 - CL 3,4.6161633050196231,-74.1140139059475,0,,0
Z_56247_STOP,100A07,AK 68 - AC 3,4.6247794715720314,-74.123884128751541,0,,0
Z_56240_STOP,098B07,AK 68 - AC 3,4.6226718548956436,-74.124949019365772,0,,0
Z_56239_STOP,098A07,AK 68 - AC 3,4.6220696556627967,-74.125160083591368,0,,0
Z_56242_STOP,098D07,AK 68 - CL 1,4.6237699327261135,-74.12460344592877,0,,0
Z_56241_STOP,098C07,AK 68 - CL 1,4.6231048462511248,-74.124823827545384,0,,0
Z_56250_STOP,100D07,AK 68 - CL 1,4.6221977713117779,-74.1247511403263,0,,0
Z_56237_STOP,097C07,AK 68 - CL 5,4.6277016637150616,-74.1231132301269,0,,0
Z_56238_STOP,097D07,AK 68 - CL 5,4.6279473306151422,-74.123024923054444,0,,0
Z_56231_STOP,096A07,AK 68 - CL 8,4.6308610135275181,-74.121784942055072,0,,0
Z_56232_STOP,096B07,AK 68 - CL 9,4.6312125867944447,-74.121669165746539,0,,0
Z_56197_STOP,091C07,AK 68 - CL 9,4.6298650682907514,-74.121829656530153,0,,0
Z_56195_STOP,091A07,AK 68 - CL 9,4.6305283065652691,-74.121556552911485,0,,0
Z_56251_STOP,101A07,AK 68- CL 10,4.63313023211432,-74.12048653884122,0,,0
Z_52992_STOP,068A06,AK 68- CL 20,4.64422799081419,-74.110999560328622,0,,0
Z_56244_STOP,099B07,AK 68- CL 4G,4.6277572445475261,-74.12269673803705,0,,0
Z_57807_STOP,828A00,AK 7 - AC 32,4.6184332796144654,-74.068426898660007,0,,0
Z_57798_STOP,819A00,AK 7 - AC 57,4.6434691067083005,-74.061907617032588,0,,0
Z_56886_STOP,040A00,AK 7 - AC 85,4.6665164878114052,-74.04597514295908,0,,0
Z_57611_STOP,363A00,AK 7 - AC 85,4.666209359972167,-74.046374839689321,0,,0
Z_57582_STOP,343A00,AK 7 - AC 94,4.6739722598253151,-74.041938670975455,0,,0
Z_57883_STOP,655A00,AK 7 - CL 24,4.6104848402773477,-74.0699768578393,0,,0
Z_57884_STOP,656A00,AK 7 - CL 27,4.612115954281502,-74.069609322764748,0,,0
Z_57898_STOP,675A00,AK 7 - CL 29,4.6154572362349926,-74.068909837113509,0,,0
Z_57858_STOP,777A00,AK 7 - CL 32,4.6192599624128432,-74.067839645982346,0,,0
Z_57803_STOP,824A00,AK 7 - CL 33,4.6210332742024978,-74.067343165877574,0,,0
Z_57859_STOP,778A00,AK 7 - CL 35,4.6224704279862285,-74.0665266665668,0,,0
Z_57630_STOP,386A00,AK 7 - CL 36,4.6241900340003381,-74.06604093717857,0,,0
Z_57802_STOP,823A00,AK 7 - CL 37,4.6248338199444,-74.066121917822727,0,,0
Z_57628_STOP,384A00,AK 7 - CL 40,4.6277320972260574,-74.06519091270718,0,,0
Z_57801_STOP,822A00,AK 7 - CL 42,4.6300660195317755,-74.064763561249052,0,,0
Z_57627_STOP,383A00,AK 7 - CL 43,4.6304809864229792,-74.064385670585551,0,,0
Z_57626_STOP,381A00,AK 7 - CL 46,4.6331847575709606,-74.063737942145281,0,,0
Z_57800_STOP,821A00,AK 7 - CL 46,4.633297097394232,-74.063952467748,0,,0
Z_57799_STOP,820A00,AK 7 - CL 48,4.63500466777197,-74.06388952776949,0,,0
Z_57624_STOP,378A00,AK 7 - CL 51,4.6385666411459328,-74.063221518479622,0,,0
Z_57623_STOP,377A00,AK 7 - CL 52,4.639013283543342,-74.062880711358474,0,,0
Z_57622_STOP,376A00,AK 7 - CL 55,4.6409943297633012,-74.062586382967439,0,,0
Z_57631_STOP,387A00,AK 7 - CL 56,4.6422258537999346,-74.062028841348166,0,,0
Z_57620_STOP,374A00,AK 7 - CL 58,4.6438546435725572,-74.061585472949034,0,,0
Z_57621_STOP,375A00,AK 7 - CL 60,4.64574505428755,-74.061137565711476,0,,0
Z_57619_STOP,373A00,AK 7 - CL 64,4.6482122355655093,-74.059488830411382,0,,0
Z_57618_STOP,372A00,AK 7 - CL 66,4.6494115747253746,-74.0590855965145,0,,0
Z_57805_STOP,826A00,AK 7 - CL 68,4.6514428197183859,-74.05723317813198,0,,0
Z_57617_STOP,371A00,AK 7 - CL 69,4.6517359389271276,-74.057275989478256,0,,0
Z_57806_STOP,827A00,AK 7 - CL 70,4.6530001220864365,-74.056180270141837,0,,0
Z_57616_STOP,368A00,AK 7 - CL 74,4.6572221486829788,-74.053816430423126,0,,0
Z_57615_STOP,367A00,AK 7 - CL 74,4.6563572353238207,-74.054690827178732,0,,0
Z_57614_STOP,366A00,AK 7 - CL 76,4.6590930158579456,-74.052373708699,0,,0
Z_57613_STOP,365A00,AK 7 - CL 77,4.6599798355017183,-74.051791195055316,0,,0
Z_56887_STOP,041A00,AK 7 - CL 81,4.662746440158422,-74.048790766030848,0,,0
Z_57612_STOP,364A00,AK 7 - CL 83,4.6633724530768026,-74.048515954132142,0,,0
Z_56885_STOP,039A00,AK 7 - CL 88,4.6696706482878092,-74.044477248314337,0,,0
Z_57587_STOP,348A00,AK 7 - CL 89,4.6701946977615414,-74.0444905274028,0,,0
Z_57583_STOP,344A00,AK 7 - CL 94,4.6751396950335113,-74.04096707210671,0,,0
Z_56317_STOP,053A01,AK 9 - Cl141,4.7183870601096825,-74.03230413815993,0,,0
T_11601_STOP,BD-005A,BD-005A00_GM,4.6282712826003012,-74.065153628687057,0,,0
Z_57881_STOP,652A00,CL 17 - KR 7,4.6037936049603143,-74.072661749605231,0,,0
Z_56008_STOP,585A13,CL 1F - KR 5,4.587423236856992,-74.078583843710348,0,,0
Z_57780_STOP,605A00,CL 2 - KR 11,4.5917978538336861,-74.084545444307793,0,,0
Z_57669_STOP,434A00,CL 2 - KR 19,4.5960961534238711,-74.091801173207415,0,,0
Z_57662_STOP,423A00,CL 2 - KR 26,4.5989494264239541,-74.098162332648087,0,,0
Z_57659_STOP,420A00,CL 2 - KR 28,4.6006581030648883,-74.100330979816917,0,,0
Z_54544_STOP,474A08,CL 2 - KR 54,4.6160082378500995,-74.121798867616832,0,,0
Z_54488_STOP,450A08,CL 2 - KR 87,4.6407063350130358,-74.1594887825557,0,,0
Z_54487_STOP,449A08,CL 2 - KR 87,4.640674872447371,-74.1596064983768,0,,0
Z_57726_STOP,502A00,CL 20 - KR 3,4.603631778126533,-74.067150493169493,0,,0
Z_57728_STOP,505A00,CL 22 - KR 2,4.6050347399360518,-74.066068068307388,0,,0
Z_56758_STOP,398A07,CL 22 -KR 44,4.6224162372505528,-74.104603857947183,0,,0
Z_57013_STOP,113A00,CL 24 - KR 4,4.60809969115513,-74.0671640569236,0,,0
Z_57011_STOP,111A00,CL 24 - KR 5,4.6093282994212528,-74.069122217627282,0,,0
Z_55958_STOP,539A13,CL 2A - KR 2,4.5871096424198559,-74.075831690391368,0,,0
Z_56878_STOP,031A00,CL 3 - AK 27,4.60153444969131,-74.098159022825,0,,0
Z_56877_STOP,030A00,CL 3 - KR 24,4.5995722549734648,-74.095383410248985,0,,0
Z_56879_STOP,032A00,CL 3 - KR 26,4.6009021687850877,-74.096972914582793,0,,0
Z_57164_STOP,185A00,CL 33 - AK 7,4.6202182584810139,-74.067990032073467,0,,0
Z_57861_STOP,781A00,CL 34 - KR 6,4.6210999528907122,-74.066575787540955,0,,0
Z_57784_STOP,612A00,CL 36 - AK 7,4.623735001978182,-74.067258124432826,0,,0
Z_57678_STOP,450A00,CL 4 - AK 10,4.593556768687181,-74.082666997728168,0,,0
Z_57677_STOP,442A00,CL 4 - KR 12,4.5951797568535238,-74.085236829831473,0,,0
Z_57676_STOP,441A00,CL 4 - KR 16,4.5966053883003726,-74.087763260138289,0,,0
Z_50440_STOP,805A00,CL 46 - KR 8,4.6328617627124942,-74.064900953530454,0,,0
Z_57758_STOP,551A00,CL 51 - KR 3,4.6354555859292947,-74.060473840495263,0,,0
Z_56527_STOP,262A07,CL 5A - AK50,4.62075523749565,-74.11187986206231,0,,0
Z_57785_STOP,613A00,CL 62 - KR 3,4.645319130087513,-74.057442184487471,0,,0
Z_57770_STOP,584A00,CL 67 - KR 8,4.6514765634816841,-74.059361479154717,0,,0
Z_56746_STOP,386A07,CL 7 - KR 90,4.6526122385457365,-74.157206884964225,0,,0
Z_50495_STOP,711A00,CL 73 - KR 9,4.65789623538497,-74.057324828806316,0,,0
Z_57796_STOP,817A00,CL 81 - KR 8,4.6636102351366251,-74.0512278247887,0,,0
Z_56513_STOP,245A07,CL 9 - KR 38,4.6164368199514358,-74.103262887962643,0,,0
T_11557_STOP,BD-194A,CL26 - KR103,4.6903766176181811,-74.131431502272122,0,,0
T_11558_STOP,BD-379A,CL26 - KR106,4.6942217843835179,-74.136064004877653,0,,0
T_11439_STOP,BD-050A,Calle 72 K10,4.6568739501612013,-74.0585549574924,0,,0
T_11471_STOP,BD-051A,Calle 76 K11,4.66188145041593,-74.057478623694266,0,,0
Z_56401_STOP,094A01,Cl140 - KR 9,4.7178444413599294,-74.033036594384825,0,,0
Z_59036_STOP,979V08,DG 2 - KR 60,4.6193333092967253,-74.123541495945048,0,,0
Z_59001_STOP,980V08,DG 2 - KR 66,4.6221110870603637,-74.123760940525841,0,,0
Z_57779_STOP,603A00,DG 91 - KR 4,4.6691028607444149,-74.0407576988533,0,,0
Z_57778_STOP,602A00,DG 91 - KR 4,4.6693355814969673,-74.0410732279641,0,,0
Z_55656_STOP,339A13,KR 1 - CL 2A,4.5867616767091128,-74.074216007479322,0,,0
Z_55956_STOP,536A13,KR 1 - CL 2A,4.586913426485741,-74.074120919705877,0,,0
Z_59071_STOP,905A00,KR 1 - CL 42,4.6287569757160636,-74.062172790851491,0,,0
Z_56983_STOP,338A01,KR 11 - 187A,4.7644308769334591,-74.0323939614669,0,,0
Z_57837_STOP,807A00,KR 18 - CL 3,4.5964355072225986,-74.0897019020378,0,,0
Z_55959_STOP,540A13,KR 1A - CL 3,4.5882089728903672,-74.074444129369539,0,,0
Z_55654_STOP,337A13,KR 1A - CL 4,4.5894761163758835,-74.073535610962992,0,,0
Z_57085_STOP,155A00,KR 24 - AC 6,4.6020655450331036,-74.093544440054458,0,,0
Z_57834_STOP,803A00,KR 24 - CL 7,4.60410525747284,-74.092254617523537,0,,0
Z_57259_STOP,200B00,KR 24 - CL 9,4.6062502397014384,-74.090860013351971,0,,0
Z_55651_STOP,330A13,KR 3 - CL 1C,4.5852573637636116,-74.077307564451743,0,,0
Z_55650_STOP,329A13,KR 3 - CL 1C,4.5848306427661312,-74.077679683360174,0,,0
Z_57894_STOP,665B00,KR 3 - CL 20,4.604446236310201,-74.067224836358008,0,,0
Z_57893_STOP,665A00,KR 3 - CL 21,4.6050573017000618,-74.066875294421024,0,,0
Z_57892_STOP,664A00,KR 3 - CL 21,4.6050800463092472,-74.067224939382655,0,,0
Z_57836_STOP,804A00,KR 3 - CL 31,4.616085382071506,-74.0629123103872,0,,0
Z_58955_STOP,605A13,KR 3 - CL 6D,4.5926389759410986,-74.073815798505137,0,,0
Z_57690_STOP,480A00,KR 4 - AC 19,4.6042639375435463,-74.068602883431211,0,,0
Z_57683_STOP,462A00,KR 4 - CL 12,4.5978903395306236,-74.07190240007435,0,,0
Z_57782_STOP,608A00,KR 4 - CL 17,4.6020827287528112,-74.069502302222389,0,,0
Z_57727_STOP,504A00,KR 4 - CL 22,4.6069082840414755,-74.067463479003337,0,,0
Z_55653_STOP,333A13,KR 4 - CL 2B,4.5871152368184349,-74.077432843021384,0,,0
Z_57767_STOP,564A00,KR 4 - CL 64,4.6471797911724986,-74.056696917662848,0,,0
Z_57689_STOP,479A00,KR 5 - AC 19,4.604941709817199,-74.069998266974878,0,,0
Z_57015_STOP,115A00,KR 5 - CL 11,4.5972315101100385,-74.073416910396389,0,,0
Z_57691_STOP,481A00,KR 5 - CL 22,4.6078307594367258,-74.068768860495382,0,,0
Z_57891_STOP,663A00,KR 5 - CL 26,4.6122893777564764,-74.0673990541746,0,,0
Z_57838_STOP,808A00,KR 5 - CL 35,4.622094770089217,-74.063278882613616,0,,0
Z_57768_STOP,565A00,KR 5 - CL 66,4.6493512283773066,-74.057252446318117,0,,0
Z_57776_STOP,599A00,KR 5 - CL 85,4.664867856566322,-74.046026952017414,0,,0
Z_57775_STOP,598A00,KR 5 - CL 86,4.664994995516877,-74.046126796230325,0,,0
Z_56469_STOP,208A07,KR 56 - AC 3,4.6200094030728307,-74.119364410886632,0,,0
Z_54545_STOP,475A08,KR 56 - CL 2,4.6168296383735008,-74.1221074866136,0,,0
Z_55649_STOP,328A13,KR 6 - CL 1F,4.58884603931666,-74.079477390055274,0,,0
Z_56189_STOP,085A07,KR 78 - AC 8,4.6388862382866565,-74.14143819259489,0,,0
Z_54701_STOP,559A08,KR 78 - CL 4,4.6281194613139114,-74.145212512999947,0,,0
Z_55920_STOP,514A13,KR 8 - CL 1D,4.5889159309366967,-74.0819788944337,0,,0
Z_57757_STOP,549A00,KR 8 - CL 48,4.6350726669534534,-74.0643753993334,0,,0
Z_59069_STOP,900A00,KR 8 - CL 57,4.6430259756473724,-74.062729791246014,0,,0
Z_58401_STOP,653A00,KR 9 - CL 18,4.6058999758693586,-74.073199798121223,0,,0
Z_59054_STOP,901A00,KR 9 - CL 21,4.60769597585686,-74.072392797597772,0,,0
Z_57882_STOP,654A00,KR 9 - CL 22,4.6088200139731716,-74.0717198054022,0,,0
Z_58372_STOP,895A00,KR 9 - CL 51,4.6379629756738971,-74.064104792152392,0,,0
Z_58373_STOP,896A00,KR 9 - CL 54,4.6400799756601616,-74.063419791701719,0,,0
Z_57713_STOP,879A00,KR 9 - CL 60,4.6462992356607407,-74.0619008319715,0,,0
Z_57004_STOP,104A00,KR 9 - CL 64,4.6492708380183,-74.0603098429542,0,,0
Z_57471_STOP,279A00,KR 9 - CL 67,4.6519668701841193,-74.059480529902316,0,,0
Z_57885_STOP,657A00,KR 9 - CL 6A,4.5934170037156292,-74.080905968519332,0,,0
Z_57472_STOP,280A00,KR 9 - CL 70,4.6542908965179182,-74.058017984627782,0,,0
Z_57638_STOP,394A00,KR 9 - CL 71,4.6555895891075769,-74.057142566949508,0,,0
Z_57005_STOP,105A00,KR 9 - CL 73,4.6573042818126407,-74.055942786561459,0,,0
Z_57006_STOP,106A00,KR 9 - CL 76,4.6602700068344536,-74.053979880417842,0,,0
Z_57007_STOP,107A00,KR 9 - CL 79,4.662224235190604,-74.0527048257671,0,,0
Z_57542_STOP,318A00,KR 9 - CL 81,4.6635114620895912,-74.051833770827074,0,,0
Z_58287_STOP,420A07,KR 92 - CL 7,4.65322997588532,-74.157299848287067,0,,0
Z_59089_STOP,428A07,KR 92 - CL 7,4.6532859758827509,-74.15718284822411,0,,0
T_13469_STOP,13469,Portal Tunal,4.570580647978244,-74.139516107654629,0,,0
Z_57873_STOP,639A00,TV 3 - CL 51,4.6372282357618273,-74.061632832044381,0,,0
Z_56110_STOP,052A07,TV 42 - CL 3,4.6156035269455842,-74.1133777221416,0,,0
Z_56681_STOP,374A07,TV 42 - CL 4,4.6167533609455891,-74.110630962942466,0,,0
Z_57830_STOP,798A00,TV 5 - CL 88,4.6689304910983944,-74.044156897371138,0,,0
Z_54546_STOP,476A08,TV 53 - CL 1,4.6125708629528788,-74.121128475411652,0,,0
Z_54633_STOP,527A08,TV 53 - CL 1,4.6122127148409779,-74.1208409942666,0,,0
Z_58256_STOP,482A08,TV 53 - CL 2,4.6136282209799635,-74.118496446309308,0,,0
Z_54549_STOP,479A08,TV 53 - CL 2,4.6133334893446944,-74.117959354785512,0,,0
Z_54694_STOP,550A08,TV 60 - CL 1,4.6183110823538147,-74.12385095603716,0,,0
T_106_STOP,096A05,TV 93 -CL 53,4.6875532841867074,-74.119785162294917,0,,0
Z_52607_STOP,435A11,Vereda Quiba,4.5427472401233553,-74.1701838942508,0,,0
Z_56840_STOP,012A00,AC 1 - KR 13A,4.591377771314467,-74.088114077402963,0,,0
Z_57609_STOP,360A00,AC 1 - KR 19A,4.5927383476987,-74.091143474256782,0,,0
Z_57608_STOP,359A00,AC 1 - KR 19A,4.5933932323770721,-74.093425954229431,0,,0
Z_57607_STOP,358A00,AC 1 - KR 24B,4.5947266705933165,-74.0980406367105,0,,0
Z_52058_STOP,112A11,AC 1 - KR 25A,4.59479301344087,-74.100735215608765,0,,0
Z_57606_STOP,357A00,AC 1 - KR 26A,4.5949773497472659,-74.101687531572935,0,,0
Z_56544_STOP,162B01,AC 100 - KR 8,4.6805642692510014,-74.03917112672616,0,,0
Z_56473_STOP,212A07,AC 12 - KR 71,4.64575172376888,-74.1320568582566,0,,0
Z_57813_STOP,836A00,AC 13 - KR 18,4.60740068052314,-74.08382668514615,0,,0
Z_57810_STOP,831A00,AC 13 - KR 19,4.6077057973184656,-74.084772277429309,0,,0
Z_57814_STOP,837A00,AC 13 - KR 20,4.6089926900575167,-74.085662798696632,0,,0
Z_57809_STOP,830A00,AC 13 - KR 21,4.6093111307671588,-74.086593424104777,0,,0
Z_57808_STOP,829A00,AC 13 - KR 26,4.6112993447929185,-74.088875173960162,0,,0
Z_57815_STOP,838A00,AC 13 - KR 27,4.61251851114128,-74.089626461948512,0,,0
Z_57829_STOP,797A00,AC 13 - KR 29,4.6137047792134354,-74.091616066631275,0,,0
Z_57816_STOP,839A00,AC 13 - KR 29,4.6141596520448491,-74.091470411954461,0,,0
Z_56675_STOP,368A07,AC 13 - KR 32,4.6159246241768193,-74.094041161748152,0,,0
Z_56676_STOP,369A07,AC 13 - KR 33,4.6171307765045571,-74.094847328561556,0,,0
Z_56674_STOP,367A07,AC 13 - KR 36,4.6189900464506923,-74.097457010805442,0,,0
Z_56677_STOP,370A07,AC 13 - KR 38,4.6202261452272158,-74.09827908888,0,,0
Z_56678_STOP,371A07,AC 13 - KR 42,4.6221847077531431,-74.100492160068754,0,,0
Z_56672_STOP,365A07,AC 13 - KR 44,4.6239724751142859,-74.103001717417726,0,,0
Z_56149_STOP,067A07,AC 13 - KR 46,4.624850510422533,-74.1034870010068,0,,0
Z_56148_STOP,066A07,AC 13 - KR 47,4.62575900721865,-74.105049418087532,0,,0
Z_53568_STOP,447A06,AC 13 - KR 62,4.6340582374085706,-74.113872862806915,0,,0
Z_57918_STOP,712A00,AC 13 - TV 22,4.6105002943482782,-74.087387816001993,0,,0
Z_56673_STOP,366A07,AC 13 - TV 42,4.6216431346806361,-74.100445720911253,0,,0
Z_56796_STOP,263A01,AC 134 - AK 7,4.71212554658055,-74.030378643193529,0,,0
Z_56265_STOP,033A01,AC 134 - AK 7,4.7115796259731848,-74.029514881864927,0,,0
Z_56654_STOP,209A01,AC 147 - AK 7,4.72290848274802,-74.026936837579143,0,,0
Z_56655_STOP,210A01,AC 147 - AK 7,4.7232013200063587,-74.027067328676111,0,,0
Z_49841_STOP,080A01,AC 161 - AK 9,4.7381515373241427,-74.032353192879327,0,,0
Z_56384_STOP,074A01,AC 161 - KR 8,4.7369384087582338,-74.027540364960259,0,,0
Z_53349_STOP,262A06,AC 17 - AK 68,4.6406689587954757,-74.117036624704753,0,,0
Z_56506_STOP,151A01,AC 170 - AK 7,4.7472080355645252,-74.024653430298486,0,,0
Z_57596_STOP,224A01,AC 170 - AK 9,4.7481154262976721,-74.032535687186808,0,,0
Z_57413_STOP,669A01,AC 170 - KR 8,4.7472552333850935,-74.02697880670128,0,,0
Z_57592_STOP,225A01,AC 170 - KR 8,4.74691536969805,-74.0249241867553,0,,0
Z_57385_STOP,241B00,AC 19 - AK 13,4.6080571911068864,-74.075645008605846,0,,0
Z_57421_STOP,249A00,AC 19 - AK 13,4.6077580055848646,-74.074830429696974,0,,0
Z_56939_STOP,067B00,AC 19 - AK 27,4.6165943779352476,-74.086086872440617,0,,0
Z_57433_STOP,256A00,AC 19 - AK 27,4.615879109300419,-74.085275111361156,0,,0
Z_56327_STOP,121B07,AC 19 - AK 36,4.6222265323853575,-74.092556819888543,0,,0
Z_56326_STOP,121A07,AC 19 - AK 36,4.6221221200629392,-74.0924498125744,0,,0
Z_56083_STOP,024B07,AC 19 - AK 39,4.6240246188821,-74.0937001782795,0,,0
Z_57384_STOP,241A00,AC 19 - KR 12,4.6074667753756655,-74.074890150176913,0,,0
Z_57422_STOP,249B00,AC 19 - KR 12,4.6075593647055877,-74.07458651380017,0,,0
Z_57424_STOP,250B00,AC 19 - KR 16,4.6098692950088056,-74.078230992638993,0,,0
Z_57427_STOP,253A00,AC 19 - KR 17,4.6107121350059188,-74.0794398403131,0,,0
Z_57428_STOP,253B00,AC 19 - KR 17,4.6108098571712075,-74.079608313926173,0,,0
Z_57430_STOP,254B00,AC 19 - KR 18,4.6110165897123485,-74.079426374730474,0,,0
Z_57429_STOP,254A00,AC 19 - KR 18,4.61133295678906,-74.079849735316515,0,,0
Z_56832_STOP,007A00,AC 19 - KR 20,4.6136242366758387,-74.08259184542095,0,,0
Z_57431_STOP,255A00,AC 19 - KR 22,4.61346626063134,-74.082854781313458,0,,0
Z_56833_STOP,007B00,AC 19 - KR 22,4.61327723666654,-74.08218784518823,0,,0
Z_57432_STOP,255B00,AC 19 - KR 22,4.613579845602537,-74.082975373486448,0,,0
Z_57434_STOP,256B00,AC 19 - KR 22,4.6155590849222889,-74.084873697590965,0,,0
Z_57436_STOP,257B00,AC 19 - KR 25,4.6156642955676661,-74.085501775131775,0,,0
Z_56938_STOP,067A00,AC 19 - KR 28,4.6167016541440846,-74.086213318840265,0,,0
Z_56736_STOP,131A07,AC 19 - KR 32,4.6201418918062,-74.090375413231428,0,,0
Z_56085_STOP,025B07,AC 19 - KR 32,4.6201735764752332,-74.090124666655868,0,,0
Z_56737_STOP,131B07,AC 19 - KR 32,4.6199620702495885,-74.090195713839449,0,,0
Z_56084_STOP,025A07,AC 19 - KR 33,4.6204619175517729,-74.090408883088585,0,,0
Z_56325_STOP,120B07,AC 19 - KR 34,4.6218014145568347,-74.091867423032767,0,,0
Z_56324_STOP,120A07,AC 19 - KR 34,4.6223702224494208,-74.092441992058284,0,,0
Z_57231_STOP,567A01,AC 191 - CR 8,4.7677172332194049,-74.029211807653283,0,,0
Z_53209_STOP,180A06,AC 22 - KR 81,4.6636813505488206,-74.128237639703485,0,,0
Z_53030_STOP,087A06,AC 22 - KR 82,4.6646122375419781,-74.128954870155411,0,,0
Z_57673_STOP,089A06,AC 22 - KR 92,4.6688399757357484,-74.134484835641075,0,,0
Z_58099_STOP,088A06,AC 22 - KR 93,4.6689705337339138,-74.133820135261487,0,,0
Z_53540_STOP,418A06,AC 26 - AK 40,4.6339920452690384,-74.089680739908744,0,,0
Z_53154_STOP,443A05,AC 26 - AK 68,4.6539260022155222,-74.103090071808921,0,,0
Z_53041_STOP,388A05,AC 26 - AK 68,4.649881943582991,-74.100565893002667,0,,0
Z_53472_STOP,386A06,AC 26 - AK 68,4.6532949579520713,-74.103734278777452,0,,0
Z_53010_STOP,372A05,AC 26 - AK 70,4.66226319707503,-74.108495077029971,0,,0
Z_53096_STOP,125A06,AC 26 - AK 96,4.6840676485969555,-74.124567138348326,0,,0
Z_57826_STOP,794A00,AC 26 - KR 16,4.616922857840362,-74.073659655608168,0,,0
Z_57825_STOP,793A00,AC 26 - KR 18,4.6170627690292969,-74.0742507934121,0,,0
Z_57827_STOP,795A00,AC 26 - KR 19,4.6192058747281717,-74.075188328305842,0,,0
Z_57828_STOP,796A00,AC 26 - KR 23,4.6217732707823114,-74.077086396513039,0,,0
Z_57823_STOP,791A00,AC 26 - KR 25,4.6218759065173183,-74.077570814428682,0,,0
Z_53187_STOP,460A05,AC 26 - KR 36,4.6323614121612486,-74.084458454342879,0,,0
Z_53541_STOP,419A06,AC 26 - KR 36,4.6320460703591273,-74.084735564068836,0,,0
Z_53188_STOP,461A05,AC 26 - KR 39,4.6338358889723841,-74.087821632300276,0,,0
Z_53190_STOP,463A05,AC 26 - KR 45,4.6387454311250274,-74.093337873902385,0,,0
Z_53519_STOP,417A06,AC 26 - KR 45,4.6364979948927552,-74.092946563028278,0,,0
Z_53517_STOP,415A06,AC 26 - KR 51,4.6417305751043418,-74.0962554491395,0,,0
Z_53045_STOP,391A05,AC 26 - KR 54,4.6420877357313968,-74.095563711150248,0,,0
Z_53515_STOP,414A06,AC 26 - KR 59,4.6455685779337212,-74.098739347016988,0,,0
Z_53514_STOP,413A06,AC 26 - KR 59,4.6457883605722126,-74.097890691720622,0,,0
Z_53516_STOP,414B06,AC 26 - KR 59,4.6452681435974412,-74.098822348113828,0,,0
Z_53550_STOP,428A06,AC 26 - KR 60,4.6476013751459755,-74.100060678320119,0,,0
Z_53503_STOP,400A06,AC 26 - KR 66,4.6503627618241339,-74.101879927836961,0,,0
Z_53224_STOP,480A05,AC 26 - KR 69,4.6587760280247315,-74.106241960555991,0,,0
Z_53208_STOP,178A06,AC 26 - KR 69,4.6584322369393227,-74.107341858529736,0,,0
Z_53464_STOP,376A06,AC 26 - KR 74,4.6691123659540663,-74.113819062489327,0,,0
Z_53011_STOP,373A05,AC 26 - KR 74,4.66975908719685,-74.113280903066581,0,,0
Z_53465_STOP,377A06,AC 26 - KR 82,4.67384494998762,-74.11686490940933,0,,0
Z_53012_STOP,374A05,AC 26 - KR 82,4.6746575023489392,-74.116428551027752,0,,0
Z_52341_STOP,038A05,AC 26 - TV 93,4.6842358037910028,-74.12333770848889,0,,0
Z_56093_STOP,032A07,AC 3 - KR 31B,4.6048568464631323,-74.102840674487638,0,,0
Z_53679_STOP,039A08,AC 3 - KR 31D,4.6053830509657665,-74.103954816196946,0,,0
Z_53709_STOP,049A08,AC 3 - KR 40B,4.61297726126911,-74.112357956467619,0,,0
Z_56096_STOP,035A07,AC 3 - KR 53B,4.6164975408732634,-74.115951335600087,0,,0
Z_53683_STOP,043A08,AC 3 - KR 56A,4.6199225216822919,-74.120194076442289,0,,0
Z_58996_STOP,905V07,AC 3 - KR 64A,4.6224391306313271,-74.122269825580517,0,,0
Z_56099_STOP,038A07,AC 3 - KR 66A,4.623390604039912,-74.123162271748768,0,,0
Z_53685_STOP,045A08,AC 3 - KR 66A,4.6231688343555133,-74.1233824775313,0,,0
Z_53887_STOP,141A08,AC 3 - KR 70B,4.6252179172578307,-74.132880679263877,0,,0
Z_53908_STOP,142A08,AC 3 - KR 71C,4.6255522364735837,-74.136258736187258,0,,0
Z_57038_STOP,139A00,AC 32 - KR 13,4.6191172362075168,-74.069424837328469,0,,0
Z_57035_STOP,135A00,AC 32 - KR 17,4.62042670146371,-74.07345330526519,0,,0
Z_57036_STOP,136A00,AC 32 - KR 17,4.6208965545491605,-74.072291005227385,0,,0
Z_57163_STOP,183A00,AC 34 - AK 19,4.62371137536256,-74.074258648470547,0,,0
Z_57588_STOP,349A00,AC 34 - KR 16,4.6234307883160488,-74.071782617480068,0,,0
Z_57589_STOP,350A00,AC 34 - KR 16,4.6232549582140727,-74.071752397788558,0,,0
Z_57162_STOP,182A00,AC 34 - KR 20,4.6238264960551012,-74.074148843078774,0,,0
Z_56959_STOP,091A00,AC 34 - KR 21,4.6239442363401917,-74.075580840950252,0,,0
Z_56958_STOP,090A00,AC 34 - KR 24,4.6241532759974255,-74.075922617028027,0,,0
Z_56956_STOP,088A00,AC 34 - KR 27,4.62442610423819,-74.077513804136828,0,,0
Z_57469_STOP,277A00,AC 45 - AK 13,4.6324329271836611,-74.066867580005436,0,,0
Z_57470_STOP,278A00,AC 45 - AK 13,4.6322359077202551,-74.066793431423065,0,,0
Z_56953_STOP,085A00,AC 45 - AK 19,4.6332670422903117,-74.072362301921359,0,,0
Z_56954_STOP,086A00,AC 45 - AK 19,4.633246129742199,-74.071371273261491,0,,0
Z_56947_STOP,078A00,AC 45 - KR 20,4.6335969902598073,-74.073293360781364,0,,0
Z_56946_STOP,077A00,AC 45 - KR 22,4.6336749484357007,-74.074649775445,0,,0
Z_56881_STOP,034A00,AC 53 - AK 13,4.6403139501366537,-74.065558792003955,0,,0
Z_56883_STOP,037A00,AC 53 - AK 24,4.6420288952512614,-74.07516444046334,0,,0
Z_52566_STOP,135A05,AC 53 - AK 45,4.6455109162852679,-74.084569701570018,0,,0
Z_52274_STOP,017A05,AC 53 - AK 50,4.6472043273662242,-74.087014466357488,0,,0
Z_52628_STOP,158A05,AC 53 - AK 50,4.6478644851145061,-74.08713497228571,0,,0
Z_52632_STOP,162A05,AC 53 - AK 60,4.6523714616722263,-74.094019837543556,0,,0
Z_52338_STOP,035A05,AC 53 - AK 60,4.6525651781588468,-74.0938055128502,0,,0
Z_57442_STOP,262A00,AC 53 - KR 13,4.6401468730530748,-74.065575230028614,0,,0
Z_57441_STOP,261A00,AC 53 - KR 15,4.6405044595585174,-74.067757157593974,0,,0
Z_57634_STOP,390A00,AC 53 - KR 18,4.6409756774968276,-74.070351454737462,0,,0
Z_56882_STOP,035A00,AC 53 - KR 19,4.6412516856985739,-74.0709197276071,0,,0
Z_57633_STOP,389A00,AC 53 - KR 21,4.6415486410975211,-74.07338045982253,0,,0
Z_57703_STOP,862A00,AC 53 - KR 22,4.6416002360570561,-74.072700838744652,0,,0
Z_57440_STOP,260A00,AC 53 - KR 25,4.6418833693798467,-74.075178190109838,0,,0
Z_57439_STOP,259A00,AC 53 - KR 28,4.6422960678581475,-74.076673124474354,0,,0
Z_52568_STOP,137A05,AC 53 - KR 37,4.6437227563813037,-74.082513558994819,0,,0
Z_52273_STOP,016A05,AC 53 - KR 46,4.6460328310954626,-74.08451223938178,0,,0
Z_52629_STOP,159A05,AC 53 - KR 54,4.6487965260154231,-74.0892976142554,0,,0
Z_52339_STOP,036A05,AC 53 - KR 54,4.6492399774162765,-74.089066756756,0,,0
Z_52773_STOP,209A05,AC 53 - KR 57,4.6501339715273211,-74.091195572304059,0,,0
Z_52631_STOP,161A05,AC 53 - KR 59,4.650791830355625,-74.092133204298264,0,,0
Z_52634_STOP,164A05,AC 53 - KR 67,4.6555585509345567,-74.098530021765811,0,,0
Z_52426_STOP,088A05,AC 53 - KR 73,4.6734453696195182,-74.1081489934345,0,,0
Z_52430_STOP,092A05,AC 53 - KR 78,4.6787218583074672,-74.111869882275073,0,,0
Z_57872_STOP,638A00,AC 57 - KR 13,4.6437931578131781,-74.064757589529719,0,,0
Z_57455_STOP,263A00,AC 57 - KR 15,4.6443274865750483,-74.0669196295671,0,,0
Z_57456_STOP,264A00,AC 57 - KR 15,4.6441684990514833,-74.06702531826582,0,,0
Z_57458_STOP,266A00,AC 57 - KR 17,4.6444907247925427,-74.068975401024375,0,,0
Z_57457_STOP,265A00,AC 57 - KR 17,4.6446689599762241,-74.068894990224152,0,,0
Z_57459_STOP,267A00,AC 57 - KR 20,4.6450144385284435,-74.070892919678769,0,,0
Z_57460_STOP,268A00,AC 57 - TV 25,4.6453742378254859,-74.07301546479431,0,,0
Z_57462_STOP,270A00,AC 57 - TV 27,4.6456919362293858,-74.074896276703441,0,,0
Z_56937_STOP,064A00,AC 6 - KR 12A,4.59648311121426,-74.084028132471374,0,,0
Z_56933_STOP,060A00,AC 6 - KR 16A,4.5980224517707313,-74.08671943776227,0,,0
Z_56318_STOP,114A07,AC 6 - KR 31C,4.6083141784603168,-74.100770974473164,0,,0
Z_56743_STOP,383A07,AC 6 - KR 34A,4.6109209206884643,-74.102461067133945,0,,0
Z_56320_STOP,117A07,AC 6 - KR 34A,4.6104132062955978,-74.102979561122652,0,,0
Z_56321_STOP,118A07,AC 6 - KR 41A,4.617648512677663,-74.105498654997049,0,,0
Z_56293_STOP,109A07,AC 6 - TV 42A,4.6192945105559406,-74.106228477765711,0,,0
Z_56844_STOP,016A00,AC 63 - AK 24,4.6509964257861958,-74.071965402432127,0,,0
Z_52575_STOP,145A05,AC 63 - AK 60,4.6611072847608419,-74.089617315124855,0,,0
Z_52621_STOP,151A05,AC 63 - AK 60,4.6582118012507472,-74.08763355716971,0,,0
Z_52620_STOP,150A05,AC 63 - AK 60,4.6580959996797722,-74.087851148242464,0,,0
Z_52570_STOP,139A05,AC 63 - AK 68,4.6634223274597524,-74.09120837430811,0,,0
Z_52569_STOP,138A05,AC 63 - AK 68,4.6638900460968662,-74.09184533086794,0,,0
Z_52571_STOP,140A05,AC 63 - AK 68,4.667224910942962,-74.095606683109565,0,,0
Z_57998_STOP,141A05,AC 63 - AK 68,4.6673366772078326,-74.0953349108907,0,,0
Z_52761_STOP,201B05,AC 63 - AK 96,4.6912334913207472,-74.120090812743427,0,,0
Z_52760_STOP,201A05,AC 63 - AK 96,4.6911199868599418,-74.120023929292643,0,,0
Z_56841_STOP,013A00,AC 63 - KR 15,4.6499531816546069,-74.066136821838185,0,,0
Z_56842_STOP,014A00,AC 63 - KR 16,4.6498864049656259,-74.066985563006924,0,,0
Z_57552_STOP,325A00,AC 63 - KR 18,4.6502181250729722,-74.068817301835637,0,,0
Z_56843_STOP,015A00,AC 63 - KR 19,4.65049016100425,-74.069179120232178,0,,0
Z_57551_STOP,324A00,AC 63 - KR 22,4.650726543932822,-74.071673389555571,0,,0
Z_56845_STOP,017A00,AC 63 - KR 26,4.6513674974156629,-74.0739935170892,0,,0
Z_56846_STOP,018A00,AC 63 - KR 27,4.6512809066021825,-74.07470742090257,0,,0
Z_56847_STOP,019A00,AC 63 - KR 28,4.6516833970973925,-74.075692833575459,0,,0
Z_52626_STOP,156A05,AC 63 - KR 45,4.6527311013265136,-74.0814157874909,0,,0
Z_52623_STOP,153A05,AC 63 - KR 47,4.6563341955628346,-74.08663811406656,0,,0
Z_52625_STOP,155A05,AC 63 - KR 56,4.6549243061308854,-74.085352406017819,0,,0
Z_52574_STOP,144A05,AC 63 - KR 65,4.6605953919595562,-74.0895514319562,0,,0
Z_53095_STOP,426A05,AC 63 - KR 73,4.6753265273274387,-74.104940484983871,0,,0
Z_52361_STOP,063A05,AC 63 - KR 98,4.6937864191918672,-74.122995499126134,0,,0
T_96_STOP,063A05,AC 63 - KR 98,4.6938079510132766,-74.122982164142229,0,,0
Z_56926_STOP,053A00,AC 63 - KR 9A,4.6491793818352427,-74.062503930517963,0,,0
Z_53139_STOP,430A05,AC 63 - TV 85,4.6818895099007252,-74.112384564385778,0,,0
Z_53138_STOP,429A05,AC 63 - TV 85,4.6819689577333783,-74.11209737407205,0,,0
Z_52418_STOP,079A05,AC 63 - TV 93,4.6896546405284711,-74.119141877524712,0,,0
Z_52360_STOP,062A05,AC 63 - TV 93,4.69128477252143,-74.119825263204476,0,,0
Z_52419_STOP,079B05,AC 63 - TV 93,4.6898132655131555,-74.11920652156968,0,,0
Z_52417_STOP,078A05,AC 63 - TV 93,4.6880315569864894,-74.117843656231571,0,,0
Z_52766_STOP,205A05,AC 63 KR 108B,4.6995923988260984,-74.130716527741441,0,,0
Z_57554_STOP,327A00,AC 68 - KR 17,4.6566581733282968,-74.066062567324167,0,,0
Z_57817_STOP,841A00,AC 68 - KR 20,4.6576794839415792,-74.067695711584562,0,,0
Z_57556_STOP,328B00,AC 68 - KR 24,4.6593254854721939,-74.069960060608608,0,,0
Z_57555_STOP,328A00,AC 68 - KR 25,4.659564689606456,-74.0703063967681,0,,0
Z_52725_STOP,187A05,AC 68 - KR 52,4.6658032378134688,-74.078028316974724,0,,0
Z_51096_STOP,012B04,AC 68 - KR 52,4.6660043371105591,-74.07793193673325,0,,0
Z_52726_STOP,187B05,AC 68 - KR 52,4.66604750881505,-74.078181838826126,0,,0
Z_51080_STOP,012A04,AC 68 - KR 53,4.666409644768164,-74.078190998465629,0,,0
Z_51097_STOP,013A04,AC 68 - KR 57,4.6689262333489312,-74.079941871776839,0,,0
Z_52723_STOP,186A05,AC 68 - KR 57,4.6686296510172838,-74.0799762673027,0,,0
Z_52724_STOP,186B05,AC 68 - KR 57,4.6687527022660236,-74.080048808706081,0,,0
Z_51364_STOP,121B04,AC 68 - KR 58,4.6705278790879685,-74.08105944986707,0,,0
Z_51363_STOP,121A04,AC 68 - KR 59,4.6709415409109534,-74.081331262930632,0,,0
Z_52721_STOP,185A05,AC 68 - KR 60,4.6722439462997762,-74.0824452385732,0,,0
Z_52722_STOP,185B05,AC 68 - KR 62,4.6727084888854895,-74.0827506896876,0,,0
Z_51362_STOP,120B04,AC 68 - KR 63,4.6737898185640834,-74.08326506011754,0,,0
Z_51361_STOP,120A04,AC 68 - KR 64,4.6742103350005486,-74.0835412651921,0,,0
Z_52719_STOP,184A05,AC 68 - KR 65,4.674750295197744,-74.084146308694727,0,,0
Z_57543_STOP,319A00,AC 72 - AK 11,4.6574951015021435,-74.059509371378823,0,,0
Z_57539_STOP,314A00,AC 72 - AK 11,4.6575933911432683,-74.059102416547617,0,,0
Z_52689_STOP,180C05,AC 72 - AK 70,4.6849755407369411,-74.0927510596162,0,,0
Z_52687_STOP,180A05,AC 72 - AK 70,4.6843563641051071,-74.092106476511177,0,,0
Z_52688_STOP,180B05,AC 72 - AK 70,4.6846630316300661,-74.092421905357853,0,,0
Z_57544_STOP,320A00,AC 72 - KR 10,4.6564145264078993,-74.0579279922658,0,,0
Z_57540_STOP,315A00,AC 72 - KR 10,4.6569512393082881,-74.058120892256355,0,,0
Z_57639_STOP,395A00,AC 72 - KR 13,4.6585397305091911,-74.061035507487958,0,,0
Z_57640_STOP,398A00,AC 72 - KR 13,4.6587585026816489,-74.060810128838185,0,,0
Z_57541_STOP,317A00,AC 72 - KR 17,4.6604440147997028,-74.063599829844847,0,,0
Z_56923_STOP,050A00,AC 72 - KR 22,4.6622123577747594,-74.066153457525559,0,,0
Z_56827_STOP,002A00,AC 72 - KR 22,4.6623576924275314,-74.066031123338462,0,,0
Z_56828_STOP,003A00,AC 72 - KR 27,4.6641208416087192,-74.068771923097927,0,,0
Z_56830_STOP,005A00,AC 72 - KR 28,4.6653833465641483,-74.070426377664049,0,,0
Z_56829_STOP,004A00,AC 72 - KR 28,4.6655054706308539,-74.070265438449326,0,,0
Z_56831_STOP,006A00,AC 72 - KR 29,4.666389069792074,-74.071815326385277,0,,0
Z_56964_STOP,095A00,AC 72 - KR 29,4.6664490857036665,-74.071551978110207,0,,0
Z_51071_STOP,003A04,AC 72 - KR 52,4.6691110053213229,-74.075045848682436,0,,0
Z_51215_STOP,074A04,AC 72 - KR 53,4.6695621950512445,-74.075902509622225,0,,0
Z_51360_STOP,119A04,AC 72 - KR 62,4.6740236129248425,-74.08140789996736,0,,0
Z_51781_STOP,454A04,AC 72 - KR 65,4.6755362359966357,-74.0833968442735,0,,0
Z_51356_STOP,117C04,AC 72 - KR 69,4.6813928175007966,-74.089084700415412,0,,0
Z_51349_STOP,115B04,AC 72 - KR 75,4.6890097028955449,-74.097133866104684,0,,0
Z_51350_STOP,115C04,AC 72 - KR 75,4.6888240857072958,-74.096879259133758,0,,0
Z_51348_STOP,115A04,AC 72 - KR 75,4.689528624675205,-74.097802857003629,0,,0
Z_51347_STOP,114C04,AC 72 - KR 76,4.6906698201222579,-74.0992791266116,0,,0
Z_52654_STOP,176A05,AC 72 - KR 80,4.6925826485116842,-74.101960758198445,0,,0
Z_51323_STOP,113B04,AC 72 - KR 80,4.693060842605985,-74.102178543659846,0,,0
Z_51322_STOP,113A04,AC 72 - KR 80,4.6931148770749358,-74.102301638643411,0,,0
Z_51324_STOP,113C04,AC 72 - KR 80,4.69286014500234,-74.1019530548415,0,,0
Z_51630_STOP,309D04,AC 72 - KR 83,4.6946493865980248,-74.104229284241171,0,,0
Z_52678_STOP,177A05,AC 72 - KR 83,4.694687024099844,-74.104622411162609,0,,0
Z_51386_STOP,122C04,AC 72 - KR 88,4.6972345730687355,-74.107657187523515,0,,0
Z_51385_STOP,122B04,AC 72 - KR 88,4.6974282164858332,-74.107974058815273,0,,0
Z_51384_STOP,122A04,AC 72 - KR 90,4.6975440720467008,-74.108150942055275,0,,0
Z_52641_STOP,170A05,AC 72 - KR 90,4.69782030319871,-74.108884590341134,0,,0
Z_51388_STOP,123B04,AC 72 - KR 93,4.699983029011201,-74.111587833234537,0,,0
Z_51387_STOP,123A04,AC 72 - KR 93,4.7002613676885394,-74.111987446650247,0,,0
Z_51390_STOP,124A04,AC 72 - KR 97,4.7023713039462169,-74.1146856962573,0,,0
Z_56112_STOP,054A07,AC 8 - KR 72A,4.63707972047029,-74.137954121533483,0,,0
Z_56111_STOP,053A07,AC 8 - KR 72B,4.6369157373371417,-74.1384448114832,0,,0
Z_56351_STOP,168A07,AC 8 - KR 78C,4.6387132382610883,-74.1430548782167,0,,0
Z_56660_STOP,353A07,AC 8 - KR 79C,4.64030287072775,-74.144918649164481,0,,0
Z_57149_STOP,169A00,AC 80 - KR 27,4.6697436713736735,-74.064268427335691,0,,0
Z_57148_STOP,168A00,AC 80 - KR 27,4.6706330809364749,-74.064470256343853,0,,0
Z_51713_STOP,414A04,AC 80 - KR 77,4.6979442890656689,-74.094472733017781,0,,0
Z_51698_STOP,339A04,AC 80 - KR 84,4.7021520518931554,-74.0996024049142,0,,0
Z_51711_STOP,412A04,AC 80 - KR 84,4.701947419111506,-74.100014222196563,0,,0
Z_51709_STOP,410A04,AC 80 - KR 90,4.7043458445069826,-74.104490549606425,0,,0
Z_51742_STOP,427A04,AC 80 - KR 93,4.70589133304774,-74.10685936514308,0,,0
Z_51708_STOP,409A04,AC 80 - KR 94,4.706184752047923,-74.108382381936181,0,,0
Z_51707_STOP,408A04,AC 80 - KR 96,4.7075725250938847,-74.110093595431167,0,,0
Z_58614_STOP,493A04,AC 80 - TV 94,4.7069219754719525,-74.108670820533675,0,,0
Z_51266_STOP,086A04,AC 80 - TV106,4.7145974864195024,-74.116388421324345,0,,0
Z_51104_STOP,017A04,AC 80 KR 116B,4.7251656803335713,-74.123840179263425,0,,0
Z_57500_STOP,295A00,AC 82 - KR 12,4.6675112523569569,-74.052702867756068,0,,0
Z_57473_STOP,281A00,AC 85 - AK 11,4.6679554793904368,-74.051850463254127,0,,0
Z_56942_STOP,072A00,AC 85 - KR 13,4.6694392351555614,-74.054123826474751,0,,0
Z_56943_STOP,074A00,AC 85 - KR 19,4.6718852352763918,-74.058811829373781,0,,0
Z_51267_STOP,087A04,AC 90 - KR 84,4.7088168187490576,-74.093335007928715,0,,0
Z_51400_STOP,130A04,AC 90 - KR 87,4.71161093954155,-74.096407536012762,0,,0
Z_51133_STOP,029A04,AC 90 - KR 91,4.7131976923883991,-74.098015274609864,0,,0
Z_51134_STOP,030A04,AC 90 - KR 91,4.7126529415042091,-74.097221105398347,0,,0
Z_57478_STOP,287A00,AC 92 - KR 14,4.6753622349986363,-74.051209824466369,0,,0
Z_57479_STOP,288A00,AC 92 - KR 16,4.6765142350524389,-74.053427825848146,0,,0
Z_57708_STOP,869A00,AC 92 - KR 19,4.6775492351030818,-74.055374827056539,0,,0
Z_58130_STOP,864A00,AC 94 - KR 16,4.6803549754124676,-74.052113784117921,0,,0
Z_57724_STOP,499A00,AK 1 - CL 19A,4.5996180753827627,-74.06542849714873,0,,0
Z_57841_STOP,811A00,AK 10 - AC 19,4.607684070199948,-74.073493872778073,0,,0
Z_57897_STOP,674A00,AK 10 - AC 26,4.6128749240497564,-74.070074165395923,0,,0
Z_57866_STOP,786A00,AK 10 - CL 12,4.6014380330249018,-74.076914629225442,0,,0
Z_57869_STOP,789A00,AK 10 - CL 12,4.6009379759142108,-74.077688801032352,0,,0
Z_57867_STOP,787A00,AK 10 - CL 15,4.603563080988379,-74.075609001953751,0,,0
Z_57868_STOP,788A00,AK 10 - CL 15,4.6037162044198814,-74.075857490345527,0,,0
Z_57842_STOP,812A00,AK 10 - CL 17,4.6058989598582416,-74.074549768464209,0,,0
Z_57839_STOP,809A00,AK 10 - CL 18,4.6061964953451264,-74.0740711683269,0,,0
Z_57845_STOP,761A00,AK 10 - CL 22,4.6085044808940472,-74.072723592908844,0,,0
Z_57844_STOP,814A00,AK 10 - CL 24,4.61127075345517,-74.071089935569,0,,0
Z_57326_STOP,226B00,AK 11 - AC 72,4.6579358290185322,-74.0582646403838,0,,0
Z_57325_STOP,226A00,AK 11 - AC 72,4.6578462252040689,-74.058349329420111,0,,0
Z_56892_STOP,045A00,AK 11 - AC 82,4.6673897437062388,-74.051854623387484,0,,0
Z_57319_STOP,223A00,AK 11 - AC 82,4.6662952854289337,-74.05258963052448,0,,0
Z_57320_STOP,223B00,AK 11 - AC 82,4.6664347136241888,-74.052493419264948,0,,0
Z_56893_STOP,045B00,AK 11 - AC 85,4.6682196292468952,-74.051301630818344,0,,0
Z_56920_STOP,047A00,AK 11 - CL 65,4.6515343116362438,-74.062019431982293,0,,0
Z_57332_STOP,229B00,AK 11 - CL 67,4.6532561978404337,-74.061232198756272,0,,0
Z_57331_STOP,229A00,AK 11 - CL 67,4.6530192838184847,-74.061327368989978,0,,0
Z_57330_STOP,228B00,AK 11 - CL 69,4.6546731908511676,-74.06051891834386,0,,0
Z_57329_STOP,228A00,AK 11 - CL 69,4.6543483651790929,-74.0606975937988,0,,0
Z_57328_STOP,227B00,AK 11 - CL 71,4.6564043564357807,-74.059336476921814,0,,0
Z_57323_STOP,225A00,AK 11 - CL 74,4.659527715472672,-74.05715217521599,0,,0
Z_57324_STOP,225B00,AK 11 - CL 75,4.6604503039439,-74.056554830971237,0,,0
Z_57321_STOP,224A00,AK 11 - CL 78,4.6630957805461835,-74.054721986433933,0,,0
Z_57322_STOP,224B00,AK 11 - CL 79,4.6640153911486193,-74.05412361059156,0,,0
Z_57317_STOP,222A00,AK 11 - CL 87,4.6700209429062713,-74.050045976388191,0,,0
Z_57318_STOP,222B00,AK 11 - CL 88,4.6712936412769865,-74.049303537472454,0,,0
Z_57315_STOP,221A00,AK 11 - CL 90,4.6723449201302678,-74.04875267515628,0,,0
Z_57316_STOP,221B00,AK 11 - CL 90,4.6726969957281055,-74.048565671789675,0,,0
Z_56890_STOP,044A00,AK 11 - CL 92,4.6739235929165117,-74.047931960280238,0,,0
Z_56891_STOP,044B00,AK 11 - CL 93,4.6746685048358,-74.047536599771817,0,,0
Z_57312_STOP,219B00,AK 11 - CL 94,4.6783533301150273,-74.045662619958321,0,,0
Z_56965_STOP,096A00,AK 13 - CL 20,4.6089792870207793,-74.074548225295914,0,,0
Z_56966_STOP,097A00,AK 13 - CL 23,4.6110819539131267,-74.072801499546543,0,,0
Z_57721_STOP,894A00,AK 13 - CL 26,4.6124502363531121,-74.071688838891589,0,,0
Z_57382_STOP,240A00,AK 13 - CL 27,4.61464671497622,-74.070804069841742,0,,0
Z_57383_STOP,240B00,AK 13 - CL 27,4.6148261163554878,-74.070656098380951,0,,0
Z_57381_STOP,239C00,AK 13 - CL 29,4.6162892362396439,-74.069309837335211,0,,0
Z_57379_STOP,239A00,AK 13 - CL 29,4.6166371447538515,-74.069113436428708,0,,0
Z_57380_STOP,239B00,AK 13 - CL 29,4.6167810450914075,-74.069068814927931,0,,0
Z_57377_STOP,238A00,AK 13 - CL 31,4.6184853640113541,-74.068754126851829,0,,0
Z_57378_STOP,238B00,AK 13 - CL 31,4.6187857711471185,-74.068715129011707,0,,0
Z_57246_STOP,191A00,AK 13 - CL 34,4.6222884801121307,-74.068112612857078,0,,0
Z_57247_STOP,191B00,AK 13 - CL 34,4.6225839433502891,-74.06805166775186,0,,0
Z_57376_STOP,237B00,AK 13 - CL 38,4.6265909752723351,-74.06740906727623,0,,0
Z_57375_STOP,237A00,AK 13 - CL 38,4.6262727885366566,-74.067442387645542,0,,0
Z_57374_STOP,236B00,AK 13 - CL 39,4.6282510007193247,-74.067108458077286,0,,0
Z_57373_STOP,236A00,AK 13 - CL 40,4.627624542333999,-74.06722766107022,0,,0
Z_57372_STOP,235B00,AK 13 - CL 44,4.6317340446405346,-74.066550388505462,0,,0
Z_57344_STOP,234B00,AK 13 - CL 46,4.6336730900671963,-74.066209126432042,0,,0
Z_57370_STOP,234C00,AK 13 - CL 46,4.6339606496064842,-74.066166546548743,0,,0
Z_57343_STOP,234A00,AK 13 - CL 46,4.6334070738082929,-74.066243170440927,0,,0
Z_57254_STOP,198A00,AK 13 - CL 50,4.6373937300914578,-74.065580225277984,0,,0
Z_57256_STOP,198C00,AK 13 - CL 51,4.638636433728121,-74.065378056922683,0,,0
Z_57341_STOP,233B00,AK 13 - CL 54,4.6418299892016863,-74.064841813423442,0,,0
Z_57340_STOP,233A00,AK 13 - CL 54,4.6415388833813029,-74.06488813100421,0,,0
Z_57342_STOP,233C00,AK 13 - CL 54,4.642067303955681,-74.064795661577321,0,,0
Z_56967_STOP,098A00,AK 13 - CL 57,4.644194531256967,-74.0644373014099,0,,0
Z_56968_STOP,098B00,AK 13 - CL 58,4.6447379095823225,-74.0643658872397,0,,0
Z_56994_STOP,098C00,AK 13 - CL 58,4.645090396937551,-74.06429917471381,0,,0
Z_57338_STOP,232B00,AK 13 - CL 61,4.6481437104737626,-74.063771591500824,0,,0
Z_57339_STOP,232C00,AK 13 - CL 61,4.64842371925811,-74.063754006900183,0,,0
Z_57334_STOP,230B00,AK 13 - CL 64,4.6514569683281337,-74.063234004426391,0,,0
Z_57333_STOP,230A00,AK 13 - CL 64,4.6512130177352491,-74.063275405594368,0,,0
Z_58998_STOP,953V01,AK 15 - CL 73,4.660520208685794,-74.060654310272042,0,,0
Z_57505_STOP,300A00,AK 15 - CL 75,4.6614881979433349,-74.059907685195014,0,,0
Z_57506_STOP,301A00,AK 15 - CL 76,4.6624136331029868,-74.059291832427789,0,,0
Z_57508_STOP,302B00,AK 15 - CL 77,4.6644662261087166,-74.05811331416696,0,,0
Z_57507_STOP,302A00,AK 15 - CL 79,4.66466620269151,-74.0579799936338,0,,0
Z_57510_STOP,303B00,AK 15 - CL 79,4.6657719008999772,-74.057394459188558,0,,0
Z_57509_STOP,303A00,AK 15 - CL 80,4.6659782510930627,-74.057268054825485,0,,0
Z_57512_STOP,304B00,AK 15 - CL 83,4.6689154645213291,-74.0557173796361,0,,0
Z_57514_STOP,305B00,AK 15 - CL 85,4.6703840790116944,-74.055011474591126,0,,0
Z_57515_STOP,306A00,AK 15 - CL 87,4.6724062711496464,-74.0540660386988,0,,0
Z_57516_STOP,306B00,AK 15 - CL 87,4.6722804419420489,-74.054108329131466,0,,0
Z_57517_STOP,307A00,AK 15 - CL 90,4.6737523114439483,-74.05334786763548,0,,0
Z_57518_STOP,307B00,AK 15 - CL 90,4.6736885097255518,-74.053384868023883,0,,0
Z_57520_STOP,308B00,AK 15 - CL 90,4.6747512584528419,-74.052874278608144,0,,0
Z_57519_STOP,308A00,AK 15 - CL 91,4.6752119918920148,-74.05264360606148,0,,0
Z_57532_STOP,310A00,AK 15 - CL 93,4.6773902349842809,-74.051523824618926,0,,0
Z_57535_STOP,311B00,AK 15 - CL 95,4.681286232228409,-74.049485077569628,0,,0
Z_57534_STOP,311A00,AK 15 - CL 95,4.6815506096522519,-74.0493673338056,0,,0
Z_57536_STOP,312A00,AK 15 - CL 97,4.6824258145755593,-74.048899048245445,0,,0
Z_57537_STOP,312B00,AK 15 - CL 97,4.6822313269253808,-74.0490097414096,0,,0
Z_56962_STOP,094A00,AK 15 - CL 98,4.6836802415524552,-74.04835558792594,0,,0
Z_56963_STOP,094B00,AK 15 - CL 98,4.6832559232502335,-74.048482704411583,0,,0
Z_57685_STOP,467A00,AK 18 - AC 13,4.6071926093607658,-74.082920162216908,0,,0
Z_56875_STOP,027A00,AK 19 - AC 26,4.6178545210944817,-74.075495894484035,0,,0
Z_57021_STOP,121A00,AK 19 - AC 32,4.6206695065849122,-74.074268209484657,0,,0
Z_57789_STOP,621A00,AK 19 - AC 34,4.6243061589200165,-74.073620029553027,0,,0
Z_56876_STOP,028A00,AK 19 - CL 22,4.6155512365780424,-74.0801478439138,0,,0
Z_57257_STOP,199A00,AK 19 - CL 23,4.6163017343226675,-74.077894949497875,0,,0
Z_57070_STOP,144A00,AK 19 - CL 43,4.6320390142612151,-74.072201222491074,0,,0
Z_57071_STOP,145A00,AK 19 - CL 44,4.6337430427415756,-74.071715699581546,0,,0
Z_57498_STOP,293A00,AK 19 - CL 95,4.6845712349193178,-74.052121824811522,0,,0
Z_57497_STOP,292A00,AK 19 - CL 97,4.6844215559501068,-74.052432213441463,0,,0
Z_56904_STOP,306A01,AK 19 - CL148,4.7308862916993855,-74.045209468883613,0,,0
Z_57636_STOP,392A00,AK 24 - AC 53,4.6427859704838275,-74.073707338349593,0,,0
Z_57635_STOP,391A00,AK 24 - AC 53,4.6422227749400484,-74.073948936767238,0,,0
Z_57579_STOP,340A00,AK 24 - AC 63,4.6517951375028348,-74.0721995790281,0,,0
Z_57575_STOP,336A00,AK 24 - AC 68,4.6597499102087552,-74.069280250855613,0,,0
Z_57641_STOP,399A00,AK 24 - AC 71,4.6617359755614993,-74.0678177946445,0,,0
Z_57574_STOP,335A00,AK 24 - AC 72,4.6636490506757076,-74.0668135372454,0,,0
Z_57145_STOP,163A00,AK 24 - CL 37,4.627256183596657,-74.075542080634293,0,,0
Z_57144_STOP,162A00,AK 24 - CL 39,4.6275050938013278,-74.0750942631337,0,,0
Z_57146_STOP,165A00,AK 24 - CL 40,4.6311393297537577,-74.075227338666508,0,,0
Z_57147_STOP,166A00,AK 24 - CL 40,4.6305526818353844,-74.0748482350324,0,,0
Z_57143_STOP,161A00,AK 24 - CL 42,4.633110982248521,-74.074987234703059,0,,0
Z_56872_STOP,024A00,AK 24 - CL 49,4.63819585998577,-74.074623030291733,0,,0
Z_57092_STOP,160A00,AK 24 - CL 49,4.6380211389950228,-74.074515967190024,0,,0
Z_57605_STOP,356A00,AK 24 - CL 52,4.6412428267501413,-74.073985036898222,0,,0
Z_57610_STOP,362A00,AK 24 - CL 52,4.64115368229319,-74.074131531917473,0,,0
Z_56848_STOP,020A00,AK 24 - CL 66,4.6579548670558939,-74.070402866180245,0,,0
Z_56869_STOP,021A00,AK 24 - CL 66,4.656944742212862,-74.0708636783682,0,,0
Z_57017_STOP,117A00,AK 24 - CL 67,4.6585801969010525,-74.069779933609354,0,,0
Z_57637_STOP,393A00,AK 24 - CL 71,4.6618562265426906,-74.067957787969419,0,,0
Z_57018_STOP,118A00,AK 24 - CL 77,4.6678102354757627,-74.063845832616067,0,,0
Z_57571_STOP,331A00,AK 24 - CL 77,4.667157235509487,-74.064523833053727,0,,0
Z_57772_STOP,591A00,AK 24 - CL 82,4.6708122140161539,-74.0630648522614,0,,0
Z_57771_STOP,590A00,AK 24 - CL 83,4.6718179960903212,-74.063155430573275,0,,0
Z_57546_STOP,321B00,AK 27 - AC 13,4.6128199884947394,-74.088752345390361,0,,0
Z_57545_STOP,321A00,AK 27 - AC 13,4.6124775388375348,-74.089055370217608,0,,0
Z_57151_STOP,171A00,AK 27 - AC 19,4.6155187520273229,-74.086152302167122,0,,0
Z_57786_STOP,615A00,AK 27 - AC 19,4.6165422977605335,-74.085273794991224,0,,0
Z_57548_STOP,322B00,AK 27 - CL 10,4.6088692683410724,-74.09197077040227,0,,0
Z_56921_STOP,048A00,AK 27 - CL 1A,4.595857237483421,-74.102220857298349,0,,0
Z_56838_STOP,011A00,AK 27 - CL 1G,4.5992468335969114,-74.09958510171802,0,,0
Z_56839_STOP,011B00,AK 27 - CL 1G,4.5996032081961218,-74.09931998703037,0,,0
Z_57787_STOP,616A00,AK 27 - CL 23,4.6211052631476885,-74.081476666796419,0,,0
Z_57550_STOP,323B00,AK 27 - CL 4A,4.60231788017844,-74.0971690200406,0,,0
Z_56611_STOP,329A07,AK 36 - CL 38,4.6193468946695191,-74.096216440817756,0,,0
Z_53135_STOP,137A06,AK 50 - AC 17,4.630300973492429,-74.104872012832146,0,,0
Z_52866_STOP,003A06,AK 50 - AC 24,4.6372874078024262,-74.098140666586161,0,,0
Z_52260_STOP,005A05,AK 50 - AC 26,4.6419283783116274,-74.091327292745731,0,,0
Z_52261_STOP,006A05,AK 50 - AC 26,4.64136971294612,-74.091690379850988,0,,0
Z_53029_STOP,086A06,AK 50 - CL 15,4.6293220894622946,-74.1053655652035,0,,0
Z_52868_STOP,005A06,AK 50 - CL 19,4.6340012703965741,-74.10200665995454,0,,0
Z_52869_STOP,006A06,AK 50 - CL 19,4.63348581800309,-74.102140288718957,0,,0
Z_53606_STOP,012A08,AK 50 - CL 1D,4.6101679750425042,-74.1169272809115,0,,0
Z_53605_STOP,011A08,AK 50 - CL 1G,4.611250704418258,-74.116585718923446,0,,0
Z_53156_STOP,138A06,AK 50 - CL 21,4.6360613886370734,-74.100304951047676,0,,0
Z_53603_STOP,009A08,AK 50 - CL 2C,4.6139996201884586,-74.115215841630274,0,,0
Z_53604_STOP,010A08,AK 50 - CL 2D,4.6138596005352506,-74.115020471146337,0,,0
Z_52259_STOP,004A05,AK 50 - CL 45,4.6453496638701441,-74.087004876390949,0,,0
Z_56042_STOP,006A07,AK 50 - CL 4C,4.6185839034004355,-74.112918953986224,0,,0
Z_56041_STOP,005A07,AK 50 - CL 4F,4.6188572375509578,-74.112979862720366,0,,0
Z_52257_STOP,002A05,AK 50 - CL 59,4.6508730143328165,-74.084488800891378,0,,0
Z_52256_STOP,001A05,AK 50 - CL 59,4.6518987270065271,-74.084358470174251,0,,0
Z_52756_STOP,197A05,AK 50 - CL 62,4.6517863571513232,-74.084130620915175,0,,0
Z_57644_STOP,401A00,AK 50 - CL 91,4.6807242370941582,-74.064374858608986,0,,0
Z_56191_STOP,087A07,AK 50 - TV 46,4.62137243185352,-74.110800672118046,0,,0
Z_56039_STOP,003A07,AK 50 - TV 48,4.6239871169403317,-74.109153116182213,0,,0
Z_56037_STOP,001A07,AK 50 - TV 49,4.6254629979435684,-74.10798715271342,0,,0
Z_52351_STOP,049A05,AK 60 - AC 63,4.6615153108454033,-74.08739741755204,0,,0
Z_52757_STOP,198A05,AK 60 - AC 63,4.66160299909313,-74.087865195637278,0,,0
Z_53142_STOP,434A05,AK 60 - AC 64,4.6682004656995417,-74.084322235019684,0,,0
Z_52759_STOP,200A05,AK 60 - AC 64,4.6658284845703246,-74.0857961060822,0,,0
Z_53141_STOP,433A05,AK 60 - AC 64,4.6670003476535795,-74.0846946456126,0,,0
Z_52616_STOP,146A05,AK 60 - CL 57,4.65713148700429,-74.089376130821847,0,,0
Z_52618_STOP,148A05,AK 60 - CL 60,4.6539705296887108,-74.090776604371726,0,,0
Z_52617_STOP,147A05,AK 60 - CL 61,4.65705179834882,-74.089930691057489,0,,0
Z_52861_STOP,001D06,AK 68 - AC 13,4.6387984430319262,-74.1169765978247,0,,0
Z_53100_STOP,126D06,AK 68 - AC 13,4.638332198240871,-74.116953057947171,0,,0
Z_52860_STOP,001C06,AK 68 - AC 13,4.63860657279534,-74.117193725468084,0,,0
Z_52858_STOP,001A06,AK 68 - AC 13,4.6380822278466312,-74.117698501929837,0,,0
Z_53098_STOP,126B06,AK 68 - AC 13,4.63905811178958,-74.116169467204884,0,,0
Z_53097_STOP,126A06,AK 68 - AC 13,4.6392995540645492,-74.115928681241215,0,,0
Z_53099_STOP,126C06,AK 68 - AC 13,4.6386041054421,-74.1166673191611,0,,0
Z_52859_STOP,001B06,AK 68 - AC 13,4.638298330097828,-74.11748960734181,0,,0
Z_53102_STOP,127B06,AK 68 - AC 17,4.6419359063535008,-74.113310778971851,0,,0
Z_53103_STOP,127C06,AK 68 - AC 17,4.6416383741040006,-74.1136165340408,0,,0
Z_53104_STOP,127D06,AK 68 - AC 17,4.6413765444198889,-74.11388429179668,0,,0
Z_53120_STOP,131D06,AK 68 - AC 26,4.65108972630074,-74.105023900197864,0,,0
Z_53123_STOP,132C06,AK 68 - AC 26,4.6519012166519094,-74.1049367971031,0,,0
Z_53119_STOP,131C06,AK 68 - AC 26,4.65133391979518,-74.104837802936942,0,,0
Z_53122_STOP,132B06,AK 68 - AC 26,4.6518020775213165,-74.1050079937847,0,,0
Z_53121_STOP,132A06,AK 68 - AC 26,4.6515424925016875,-74.105178174598649,0,,0
Z_53118_STOP,131B06,AK 68 - AC 26,4.6515296992463231,-74.104718717403031,0,,0
Z_52450_STOP,115C05,AK 68 - AC 26,4.6558834971003975,-74.101778265683677,0,,0
Z_53117_STOP,131A06,AK 68 - AC 26,4.6517497632445952,-74.104568904958,0,,0
Z_53124_STOP,132D06,AK 68 - AC 26,4.6521661414901718,-74.104762870594882,0,,0
Z_52519_STOP,122D05,AK 68 - AC 63,4.6708795512357755,-74.089690181049875,0,,0
Z_53145_STOP,437A05,AK 68 - AC 63,4.6639397751143692,-74.095050642585534,0,,0
Z_52485_STOP,119B05,AK 68 - AC 63,4.66308424656446,-74.096163120689724,0,,0
Z_52484_STOP,119A05,AK 68 - AC 63,4.6628366879609553,-74.096344201288019,0,,0
Z_52492_STOP,121A05,AK 68 - AC 63,4.6689978231675182,-74.091153702776822,0,,0
Z_52494_STOP,121C05,AK 68 - AC 63,4.6686240375345376,-74.09142348372967,0,,0
Z_52495_STOP,121D05,AK 68 - AC 63,4.66812799118574,-74.091827073159436,0,,0
Z_52489_STOP,120B05,AK 68 - AC 63,4.6689560288145753,-74.091631232208826,0,,0
Z_52493_STOP,121B05,AK 68 - AC 63,4.6688763763789645,-74.091248163164209,0,,0
Z_52488_STOP,120A05,AK 68 - AC 63,4.668624263742216,-74.0918839643017,0,,0
Z_53146_STOP,437B05,AK 68 - AC 63,4.6636627411955418,-74.095269769481163,0,,0
Z_52520_STOP,123A05,AK 68 - AC 66,4.6722500750378133,-74.0892088360883,0,,0
Z_52518_STOP,122C05,AK 68 - AC 66,4.6709746493622353,-74.089621716839474,0,,0
Z_52521_STOP,123B05,AK 68 - AC 66,4.6724571005291651,-74.089078498593338,0,,0
Z_52517_STOP,122B05,AK 68 - AC 66,4.6712062120926348,-74.08947856317485,0,,0
Z_51279_STOP,102A04,AK 68 - AC 72,4.6793335862991885,-74.084895699166893,0,,0
Z_51280_STOP,102B04,AK 68 - AC 72,4.6795256647643138,-74.084712523899157,0,,0
Z_51309_STOP,105B04,AK 68 - AC 80,4.6833399288241013,-74.0800304208989,0,,0
Z_54657_STOP,176B03,AK 68 - AC 80,4.684685001767166,-74.07843064636468,0,,0
Z_54656_STOP,176A03,AK 68 - AC 80,4.684530578226485,-74.07860025777785,0,,0
Z_51308_STOP,105A04,AK 68 - AC 80,4.6831433799940978,-74.080261049076512,0,,0
Z_54658_STOP,176C03,AK 68 - AC 80,4.6848132678652625,-74.078267673183447,0,,0
Z_56252_STOP,101B07,AK 68 - CL 10,4.63264148620598,-74.120684564571675,0,,0
Z_56158_STOP,072C07,AK 68 - CL 10,4.6341546623380232,-74.12045418650797,0,,0
Z_56159_STOP,072D07,AK 68 - CL 11,4.6347071492161511,-74.1202056671165,0,,0
Z_56156_STOP,072A07,AK 68 - CL 11,4.6334889732935274,-74.1207211951917,0,,0
Z_56157_STOP,072B07,AK 68 - CL 11,4.6338906652837348,-74.120553822148082,0,,0
Z_56206_STOP,094D07,AK 68 - CL 12,4.6353140033841091,-74.1195606812748,0,,0
Z_52864_STOP,002C06,AK 68 - CL 18,4.6416654709739813,-74.114085854399022,0,,0
Z_52863_STOP,002B06,AK 68 - CL 18,4.6413796441152977,-74.114397935366753,0,,0
Z_52862_STOP,002A06,AK 68 - CL 18,4.64109228329141,-74.114682432713451,0,,0
Z_52865_STOP,002D06,AK 68 - CL 18,4.6418706630740925,-74.113872867003892,0,,0
Z_52994_STOP,068C06,AK 68 - CL 19,4.6435342161844444,-74.1117915792574,0,,0
Z_52995_STOP,068D06,AK 68 - CL 19,4.6431164862697907,-74.112173822815151,0,,0
Z_53101_STOP,127A06,AK 68 - CL 19,4.6421912344507037,-74.11303524985523,0,,0
Z_56249_STOP,100C07,AK 68 - CL 1A,4.6226774773470991,-74.124589905213071,0,,0
Z_52993_STOP,068B06,AK 68 - CL 20,4.6439571130135118,-74.111294544116191,0,,0
Z_53268_STOP,190C06,AK 68 - CL 20,4.644649301181393,-74.1111279777483,0,,0
Z_53267_STOP,190B06,AK 68 - CL 20,4.6436627319579493,-74.112067082669554,0,,0
Z_53266_STOP,190A06,AK 68 - CL 20,4.6433158696078536,-74.1124300173508,0,,0
Z_53269_STOP,190D06,AK 68 - CL 20,4.64484893599445,-74.110934742603746,0,,0
Z_53107_STOP,128C06,AK 68 - CL 22,4.6462108511492213,-74.10910966174032,0,,0
Z_53111_STOP,129C06,AK 68 - CL 22,4.6465329240543731,-74.109184017384251,0,,0
Z_53108_STOP,128D06,AK 68 - CL 22,4.6459605793905476,-74.109364591845363,0,,0
Z_52449_STOP,115B05,AK 68 - CL 44,4.65561851116098,-74.102048545720521,0,,0
Z_52448_STOP,115A05,AK 68 - CL 44,4.6553368008070892,-74.102289860187085,0,,0
Z_52455_STOP,116D05,AK 68 - CL 44,4.6556188653969,-74.1014800278229,0,,0
Z_52454_STOP,116C05,AK 68 - CL 45,4.6559155760265263,-74.101277244708783,0,,0
Z_52453_STOP,116B05,AK 68 - CL 45,4.6561793130335616,-74.101045558788869,0,,0
Z_52452_STOP,116A05,AK 68 - CL 46,4.656534427391847,-74.1007982893001,0,,0
Z_52451_STOP,115D05,AK 68 - CL 46,4.6565108968246749,-74.101254733074654,0,,0
Z_52476_STOP,117A05,AK 68 - CL 49,4.6594945694067205,-74.09901328211879,0,,0
Z_52479_STOP,117D05,AK 68 - CL 49,4.659859992751838,-74.098721299583218,0,,0
Z_56245_STOP,099C07,AK 68 - CL 4D,4.6273356420315279,-74.122857444533793,0,,0
Z_56246_STOP,099D07,AK 68 - CL 4D,4.6269999979448935,-74.1229862383829,0,,0
Z_56243_STOP,099A07,AK 68 - CL 4G,4.6280712003495275,-74.122587809899343,0,,0
Z_56235_STOP,097A07,AK 68 - CL 4G,4.6271869437996394,-74.123302243732624,0,,0
Z_56236_STOP,097B07,AK 68 - CL 4G,4.6274791253644114,-74.123194519793657,0,,0
Z_52481_STOP,118B05,AK 68 - CL 51,4.6615185014971008,-74.096929675384388,0,,0
Z_52480_STOP,118A05,AK 68 - CL 51,4.6617328441191734,-74.096757213104354,0,,0
Z_52487_STOP,119D05,AK 68 - CL 52,4.66365148628736,-74.095747698687191,0,,0
Z_52797_STOP,210D05,AK 68 - CL 52,4.662199161071034,-74.096906503966053,0,,0
Z_52482_STOP,118C05,AK 68 - CL 53,4.6612841244988976,-74.097120724690512,0,,0
Z_52483_STOP,118D05,AK 68 - CL 53,4.6610631036871011,-74.0972783394833,0,,0
Z_53147_STOP,437C05,AK 68 - CL 53,4.6633997188811067,-74.095483420210172,0,,0
Z_53148_STOP,437D05,AK 68 - CL 53,4.6631555884381974,-74.095691937046723,0,,0
Z_52796_STOP,210C05,AK 68 - CL 57,4.6619808425519711,-74.097075924695375,0,,0
Z_52486_STOP,119C05,AK 68 - CL 57,4.6633670129392639,-74.095963995819986,0,,0
Z_52516_STOP,122A05,AK 68 - CL 64,4.6721272190006182,-74.088848049773631,0,,0
Z_51101_STOP,015B04,AK 68 - CL 73,4.6786690868654333,-74.085007797106755,0,,0
Z_51068_STOP,001C04,AK 68 - CL 78,4.682156832514476,-74.0809146655741,0,,0
Z_51310_STOP,105C04,AK 68 - CL 78,4.6835248435556123,-74.079794554685222,0,,0
Z_54721_STOP,210C03,AK 68 - CL 90,4.6883740066087913,-74.073084464204555,0,,0
Z_54716_STOP,209A03,AK 68 - CL 90,4.685948354579,-74.076172947602728,0,,0
Z_54717_STOP,209B03,AK 68 - CL 90,4.6858015072944443,-74.076387311363462,0,,0
Z_54718_STOP,209C03,AK 68 - CL 90,4.6855075084884161,-74.07673655067498,0,,0
Z_54654_STOP,175B03,AK 68 - CL 95,4.6870422740070374,-74.075458298877138,0,,0
Z_54720_STOP,210B03,AK 68 - CL 95,4.688486771625989,-74.072902208194435,0,,0
Z_54653_STOP,175A03,AK 68 - CL 95,4.6867444439970667,-74.075818396104026,0,,0
Z_54655_STOP,175C03,AK 68 - CL 95,4.6871349856111,-74.075328911802018,0,,0
Z_54719_STOP,210A03,AK 68 - CL 98,4.688631697067005,-74.072605213140264,0,,0
Z_56253_STOP,101C07,AK 68 - CL 9A,4.6320159006694928,-74.1209400155565,0,,0
Z_56273_STOP,101D07,AK 68 - CL 9A,4.6318755005577854,-74.120993833829758,0,,0
Z_56234_STOP,096D07,AK 68 - CL 9C,4.6323705332315743,-74.121162715203639,0,,0
Z_56233_STOP,096C07,AK 68 - CL 9C,4.63198942887728,-74.121324678540759,0,,0
Z_56203_STOP,094A07,AK 68- CL 12A,4.63676247712628,-74.11859008718902,0,,0
Z_56545_STOP,163A01,AK 7 - AC 100,4.6800903562228084,-74.037790226790833,0,,0
Z_56546_STOP,163B01,AK 7 - AC 100,4.6799750016998889,-74.037867312533066,0,,0
Z_56557_STOP,169A01,AK 7 - AC 116,4.6944425936518019,-74.0326826536239,0,,0
Z_56784_STOP,252A01,AK 7 - AC 127,4.7033766173847757,-74.028519977666491,0,,0
Z_56785_STOP,252B01,AK 7 - AC 127,4.7032015425378715,-74.028516971384462,0,,0
Z_56728_STOP,245A01,AK 7 - AC 134,4.7120705560156049,-74.029416560153777,0,,0
Z_56715_STOP,238A01,AK 7 - AC 147,4.7231702423588544,-74.026196926287739,0,,0
Z_56304_STOP,045A01,AK 7 - AC 153,4.72828100808835,-74.0245382098503,0,,0
Z_57486_STOP,228B01,AK 7 - AC 170,4.7476679773268344,-74.0227284632443,0,,0
Z_57594_STOP,227A01,AK 7 - AC 170,4.7477969513781053,-74.02307980826609,0,,0
Z_57241_STOP,577A01,AK 7 - AC 201,4.7769322404915968,-74.0259847526199,0,,0
Z_57276_STOP,587A01,AK 7 - AC 201,4.77742532770561,-74.026100055753929,0,,0
Z_56547_STOP,164A01,AK 7 - CL 101,4.6818932344843818,-74.037254815252467,0,,0
Z_56548_STOP,164B01,AK 7 - CL 102,4.6821192344766409,-74.037106815146487,0,,0
Z_56413_STOP,113A01,AK 7 - CL 104,4.6833887450028318,-74.0362414141732,0,,0
Z_56552_STOP,166B01,AK 7 - CL 106,4.6860466816172206,-74.035113926437617,0,,0
Z_56549_STOP,165A01,AK 7 - CL 106,4.6840977963476806,-74.036299786798253,0,,0
Z_56550_STOP,165B01,AK 7 - CL 106,4.6847374604387912,-74.035996032561911,0,,0
Z_56553_STOP,167A01,AK 7 - CL 110,4.6889256814920124,-74.034977035421235,0,,0
Z_56554_STOP,167B01,AK 7 - CL 110,4.6890335399178946,-74.034950760146643,0,,0
Z_56313_STOP,049B01,AK 7 - CL 110,4.68895989939418,-74.034493325762526,0,,0
Z_56311_STOP,048B01,AK 7 - CL 113,4.6920593715717844,-74.033505270972313,0,,0
Z_56555_STOP,168A01,AK 7 - CL 113,4.6919139129197456,-74.033933696128116,0,,0
Z_56310_STOP,048A01,AK 7 - CL 114,4.692559917340704,-74.033357231150248,0,,0
Z_56556_STOP,168B01,AK 7 - CL 114,4.6920771417099028,-74.0338800951014,0,,0
Z_56559_STOP,170B01,AK 7 - CL 117,4.6949783062362336,-74.032712298018623,0,,0
Z_57870_STOP,170A01,AK 7 - CL 117,4.6948318251983521,-74.032807934390263,0,,0
Z_56586_STOP,171B01,AK 7 - CL 118,4.6954175505210358,-74.032096014028681,0,,0
Z_56585_STOP,171A01,AK 7 - CL 119,4.6961153483107481,-74.031642137279448,0,,0
Z_56453_STOP,123B01,AK 7 - CL 120,4.6970597276434951,-74.031394365171167,0,,0
Z_56588_STOP,172B01,AK 7 - CL 121,4.6982417790048236,-74.029778235662718,0,,0
Z_56587_STOP,172A01,AK 7 - CL 121,4.698338982127086,-74.029633153949661,0,,0
Z_56589_STOP,173A01,AK 7 - CL 123,4.6981668822190938,-74.0303882013327,0,,0
Z_56590_STOP,173B01,AK 7 - CL 123,4.6985783401281154,-74.029772830215933,0,,0
Z_56592_STOP,174B01,AK 7 - CL 124,4.7002342340048653,-74.028884809214659,0,,0
Z_56591_STOP,174A01,AK 7 - CL 124,4.7004307215036265,-74.0288333845087,0,,0
Z_56593_STOP,175A01,AK 7 - CL 126,4.7010836027875529,-74.028435237965169,0,,0
Z_56594_STOP,175B01,AK 7 - CL 126,4.7006185500803426,-74.028530634114858,0,,0
Z_56774_STOP,247A01,AK 7 - CL 129,4.7087562151572833,-74.028760952472155,0,,0
Z_56775_STOP,247B01,AK 7 - CL 130,4.70887372206542,-74.0287761669051,0,,0
Z_56776_STOP,248A01,AK 7 - CL 130,4.7095211822324421,-74.028470693828723,0,,0
Z_56730_STOP,246B01,AK 7 - CL 132,4.7113614920408242,-74.028889712627219,0,,0
Z_56729_STOP,246A01,AK 7 - CL 132,4.7111375999304688,-74.028829782907152,0,,0
Z_56726_STOP,244A01,AK 7 - CL 135,4.71335802211691,-74.029327762936745,0,,0
Z_56308_STOP,047A01,AK 7 - CL 135,4.7137922338424056,-74.028895808869947,0,,0
Z_56727_STOP,244B01,AK 7 - CL 135,4.7136530219307033,-74.029247225809556,0,,0
Z_56309_STOP,047B01,AK 7 - CL 135,4.7134690095189358,-74.028990689047575,0,,0
Z_56725_STOP,243B01,AK 7 - CL 138,4.7149161758064988,-74.0285986613948,0,,0
Z_56797_STOP,264A01,AK 7 - CL 140,4.7154383217571576,-74.0288683944637,0,,0
Z_56798_STOP,264B01,AK 7 - CL 140,4.7167254519201176,-74.028926018030361,0,,0
Z_56724_STOP,243A01,AK 7 - CL 140,4.7157820816789524,-74.028575776047276,0,,0
Z_56719_STOP,240A01,AK 7 - CL 144,4.719057721749115,-74.027769159341545,0,,0
Z_56722_STOP,241B01,AK 7 - CL 144,4.7197209487657164,-74.02714757974509,0,,0
Z_56720_STOP,240B01,AK 7 - CL 144,4.7184582337665981,-74.028120808225339,0,,0
Z_56718_STOP,239B01,AK 7 - CL 146,4.7215979838745943,-74.026026333996512,0,,0
Z_56717_STOP,239A01,AK 7 - CL 147,4.7219642905795354,-74.02600080807423,0,,0
Z_56716_STOP,238B01,AK 7 - CL 147,4.7221387187526931,-74.026305544606132,0,,0
Z_56714_STOP,237B01,AK 7 - CL 148,4.7244682294396405,-74.025202654760974,0,,0
Z_56713_STOP,237A01,AK 7 - CL 148,4.72470394400254,-74.025005270028259,0,,0
Z_56379_STOP,070A01,AK 7 - CL 150,4.7250496316089725,-74.025255402459834,0,,0
Z_56380_STOP,070B01,AK 7 - CL 150,4.7255022351679949,-74.0250139201629,0,,0
Z_57406_STOP,660A01,AK 7 - CL 152,4.7267701027654967,-74.02462678907311,0,,0
Z_57407_STOP,660B01,AK 7 - CL 152,4.7264922270276761,-74.024656791511788,0,,0
Z_56305_STOP,045B01,AK 7 - CL 153,4.7290806811150476,-74.024250409621374,0,,0
Z_56711_STOP,236A01,AK 7 - CL 155,4.7289577402704186,-74.023993238199381,0,,0
Z_56708_STOP,234B01,AK 7 - CL 156,4.7326932334641434,-74.023861804983866,0,,0
Z_56710_STOP,235B01,AK 7 - CL 156,4.7326087065064133,-74.024154165431341,0,,0
Z_56707_STOP,234A01,AK 7 - CL 156,4.7323930871352067,-74.023800148934441,0,,0
Z_56306_STOP,046A01,AK 7 - CL 160,4.7349525575224529,-74.024168689173976,0,,0
Z_57481_STOP,231A01,AK 7 - CL 163,4.7379497920371776,-74.022912911099283,0,,0
Z_57487_STOP,229A01,AK 7 - CL 165,4.7414288782770422,-74.022472314879764,0,,0
Z_57488_STOP,229B01,AK 7 - CL 165,4.7418405703310116,-74.022442500559023,0,,0
Z_57489_STOP,230A01,AK 7 - CL 165,4.7414722333007715,-74.022136803580281,0,,0
Z_57490_STOP,230B01,AK 7 - CL 165,4.7413552333005295,-74.022123803571787,0,,0
Z_56300_STOP,043A01,AK 7 - CL 166,4.7445531202567759,-74.0221351211051,0,,0
Z_56302_STOP,044A01,AK 7 - CL 166,4.7434315869957979,-74.022427484879117,0,,0
Z_56303_STOP,044B01,AK 7 - CL 166,4.7437460580646231,-74.022409406159269,0,,0
Z_56972_STOP,321B01,AK 7 - CL 173,4.752232294723961,-74.024141432293746,0,,0
Z_56969_STOP,320A01,AK 7 - CL 173,4.7520884732374968,-74.024362240065713,0,,0
Z_56970_STOP,320B01,AK 7 - CL 174,4.7524005547851189,-74.024369709539783,0,,0
T_11951_STOP,321B01,AK 7 - CL 174,4.7522911094605984,-74.024189424207975,0,,0
Z_56971_STOP,321A01,AK 7 - CL 174,4.7533019743146951,-74.02422499343993,0,,0
Z_56609_STOP,190A01,AK 7 - CL 175,4.7544212480845873,-74.024590251215827,0,,0
Z_56915_STOP,316B01,AK 7 - CL 175,4.7545951913236806,-74.0243115009392,0,,0
Z_56635_STOP,190B01,AK 7 - CL 175,4.7547328973904177,-74.024621894658225,0,,0
Z_56914_STOP,316A01,AK 7 - CL 178,4.7549642609429217,-74.0243438472322,0,,0
Z_56368_STOP,061B01,AK 7 - CL 180,4.7567030900577425,-74.024684477647725,0,,0
Z_56366_STOP,060B01,AK 7 - CL 181,4.757286609017001,-74.025246274524534,0,,0
Z_56365_STOP,060A01,AK 7 - CL 181,4.7570418732182151,-74.025138277283546,0,,0
Z_56370_STOP,062B01,AK 7 - CL 182,4.7586219192195953,-74.02587943039947,0,,0
Z_56371_STOP,063A01,AK 7 - CL 182,4.7589408296639606,-74.025819648812657,0,,0
Z_56369_STOP,062A01,AK 7 - CL 182,4.7583677176689259,-74.025763643432342,0,,0
Z_56373_STOP,064A01,AK 7 - CL 186,4.7630580868343442,-74.027430055014449,0,,0
Z_56374_STOP,065A01,AK 7 - CL 186,4.7621968098429992,-74.0269993708647,0,,0
Z_56375_STOP,066A01,AK 7 - CL 189,4.7658586342373015,-74.027612360299557,0,,0
Z_56377_STOP,068A01,AK 7 - CL 191,4.7678420278521347,-74.027694527066132,0,,0
Z_56378_STOP,069A01,AK 7 - CL 191,4.7682615284885612,-74.027539022020008,0,,0
Z_57398_STOP,652A01,AK 7 - CL 195,4.7730828325110695,-74.026779123800537,0,,0
Z_57240_STOP,576A01,AK 7 - CL 196,4.7729224657285707,-74.0267284100312,0,,0
Z_57242_STOP,578A01,AK 7 - CL 207,4.7852347203764261,-74.027980779538623,0,,0
Z_57404_STOP,658A01,AK 7 - CL 209,4.78689480869231,-74.028018521257621,0,,0
Z_57397_STOP,651A01,AK 7 - CL 209,4.7850518772531467,-74.028165748591462,0,,0
Z_57275_STOP,586A01,AK 7 - CL 210,4.7873287715649,-74.028239778004775,0,,0
Z_57405_STOP,659A01,AK 7 - CL 210,4.78925081403754,-74.028160670231841,0,,0
Z_57396_STOP,650A01,AK 7 - CL 212,4.7907066511355652,-74.028473276091418,0,,0
Z_57243_STOP,579A01,AK 7 - CL 215,4.7942511599157189,-74.030603303636269,0,,0
Z_57274_STOP,585A01,AK 7 - CL 215,4.79403259604221,-74.0305803525108,0,,0
Z_56980_STOP,332A01,AK 7 - CL 220,4.798878330695274,-74.030623406552024,0,,0
Z_57183_STOP,503A01,AK 7 - CL 220,4.798404816574358,-74.030807063075329,0,,0
Z_57395_STOP,649A01,AK 7 - CL 224,4.8027647825907032,-74.030186031876127,0,,0
Z_57244_STOP,580A01,AK 7 - CL 225,4.802874518755182,-74.030075986781441,0,,0
Z_57273_STOP,584A01,AK 7 - CL 234,4.8067019096603634,-74.0299024993256,0,,0
Z_57270_STOP,581A01,AK 7 - CL 234,4.8082468214181526,-74.03006694824569,0,,0
Z_57180_STOP,499A01,AK 7 - CL 237,4.8114524111698964,-74.030829231639075,0,,0
Z_57181_STOP,500A01,AK 7 - CL 237,4.8109927018195568,-74.030649296789974,0,,0
Z_57271_STOP,582A01,AK 7 - CL 245,4.8184297367372944,-74.030949094076959,0,,0
Z_57272_STOP,583A01,AK 7 - CL 245,4.8181283795029426,-74.030991749721,0,,0
Z_57629_STOP,385A00,AK 7 - CL 40B,4.6277081865895662,-74.065431111245516,0,,0
Z_57625_STOP,380A00,AK 7 - CL 48A,4.6354477850920386,-74.063625312564412,0,,0
Z_57804_STOP,825A00,AK 7 - CL 60A,4.645930758547423,-74.0607475655136,0,,0
Z_57797_STOP,818A00,AK 7 - CL 70A,4.6540720741761534,-74.0558674586611,0,,0
Z_57581_STOP,342A00,AK 7 - CL 93A,4.6738786474326481,-74.0424929113376,0,,0
Z_57309_STOP,217A00,AK 7 - CL 97A,4.6783625634594648,-74.039590469897348,0,,0
Z_52637_STOP,167A05,AK 70 - AC 53,4.6685260016913741,-74.1031054809115,0,,0
Z_51099_STOP,014A04,AK 70 - AC 72,4.684368236151224,-74.091369848713,0,,0
Z_52635_STOP,165A05,AK 70 - CL 51,4.66630956146678,-74.10554545716694,0,,0
Z_52300_STOP,023A05,AK 70 - CL 51,4.666729443989527,-74.105793981214347,0,,0
Z_52636_STOP,166A05,AK 70 - CL 54,4.66913423343038,-74.103175901727624,0,,0
Z_52298_STOP,021A05,AK 70 - CL 64,4.6732374129235073,-74.099013047797257,0,,0
Z_52297_STOP,020A05,AK 70 - CL 65,4.6773062363734663,-74.09598985157956,0,,0
Z_52302_STOP,025A05,AK 70 - CL 68,4.6795709892263329,-74.094432038455835,0,,0
Z_57993_STOP,226A03,AK 70 - CL 99,4.6940523450704381,-74.075593991468665,0,,0
Z_57994_STOP,227A03,AK 70 - CL 99,4.6939432901743512,-74.075432185370687,0,,0
Z_54073_STOP,198A08,AK 78B - CL 0,4.6261520641660256,-74.147146994649759,0,,0
Z_56644_STOP,199A01,AK 9 - AC 127,4.7040398795546849,-74.032695426125741,0,,0
Z_56647_STOP,202A01,AK 9 - AC 134,4.7116711303841106,-74.0324856182712,0,,0
Z_56392_STOP,084A01,AK 9 - AC 134,4.7137648643756354,-74.032428980547834,0,,0
Z_56216_STOP,009A01,AK 9 - AC 153,4.7304912070040768,-74.03198497255427,0,,0
Z_56215_STOP,008A01,AK 9 - AC 153,4.73033222266239,-74.032321186105378,0,,0
Z_57235_STOP,571A01,AK 9 - AC 161,4.7387386073729516,-74.032067282118149,0,,0
Z_56224_STOP,017A01,AK 9 - CL 102,4.6866152497757456,-74.045587082889654,0,,0
Z_56636_STOP,191A01,AK 9 - CL 102,4.6864064251690714,-74.045100994821468,0,,0
Z_56639_STOP,194A01,AK 9 - CL 110,4.6910051427211457,-74.0378019963915,0,,0
Z_56361_STOP,056A01,AK 9 - CL 113,4.6919244075322677,-74.036177686404187,0,,0
Z_56640_STOP,195A01,AK 9 - CL 115,4.6918106032626978,-74.035777430989654,0,,0
Z_56642_STOP,197A01,AK 9 - CL 120,4.6981790395994354,-74.033152363968867,0,,0
Z_56220_STOP,013A01,AK 9 - CL 121,4.6986574810678148,-74.0328453206745,0,,0
Z_56219_STOP,012A01,AK 9 - CL 125,4.7013765033448482,-74.03274151354627,0,,0
Z_56643_STOP,198A01,AK 9 - CL 125,4.701442276395313,-74.033064356623768,0,,0
Z_56645_STOP,200A01,AK 9 - CL 129,4.7088955088300217,-74.032568032567227,0,,0
Z_56648_STOP,203A01,AK 9 - CL 135,4.7152162819838992,-74.032718814694476,0,,0
Z_56649_STOP,204A01,AK 9 - CL 138,4.7159151447855967,-74.0323750991385,0,,0
Z_56316_STOP,052A01,AK 9 - CL 140,4.7181753470782377,-74.032619805555214,0,,0
Z_56315_STOP,051A01,AK 9 - CL 142,4.7204161959889444,-74.032556463679967,0,,0
Z_56415_STOP,114A01,AK 9 - CL 145,4.72348436943423,-74.032171881479258,0,,0
Z_56651_STOP,206A01,AK 9 - CL 145,4.7220035125839246,-74.0325170095994,0,,0
Z_56652_STOP,207A01,AK 9 - CL 146,4.7244082872375337,-74.032145722261092,0,,0
Z_56217_STOP,010A01,AK 9 - CL 146,4.723545233838828,-74.032468810993663,0,,0
Z_56653_STOP,208A01,AK 9 - CL 149,4.7272855888217151,-74.032380275472022,0,,0
Z_56416_STOP,115A01,AK 9 - CL 151,4.7270743895352725,-74.03207558520414,0,,0
Z_56213_STOP,006A01,AK 9 - CL 156,4.7345289097157481,-74.032180417242287,0,,0
Z_56214_STOP,007A01,AK 9 - CL 156,4.7347211314012263,-74.031860553020991,0,,0
Z_57237_STOP,573A01,AK 9 - CL 161,4.7374928253513708,-74.0317579446542,0,,0
Z_56457_STOP,127A01,AK 9 - CL 166,4.7436603735518839,-74.031936923150226,0,,0
Z_56458_STOP,128A01,AK 9 - CL 168,4.7471874298227252,-74.0318452987765,0,,0
Z_56459_STOP,129A01,AK 9 - CL 168,4.7473240263770231,-74.03154567925813,0,,0
T_11984_STOP,129A01,AK 9 - CL 168,4.7471889521262192,-74.031569272869419,0,,0
Z_57351_STOP,617A01,AK 9 - CL 193,4.7690078832019784,-74.031071181019087,0,,0
Z_51174_STOP,056A04,AK 96 - AC 72,4.7021835861452992,-74.113583645812824,0,,0
Z_52355_STOP,056A05,AK 96 - CL 65,4.6935626667757608,-74.1193022154423,0,,0
Z_58705_STOP,445A05,AK 96 - CL 69,4.6971308615374872,-74.1163885451468,0,,0
Z_58487_STOP,052A05,AK 96 - CL 70,4.699273359531956,-74.115499764621191,0,,0
Z_56822_STOP,282A01,AK19 - CL 135,4.7198768392179691,-74.0466539648282,0,,0
Z_56688_STOP,135A07,CL 10 - KR 79,4.6424573052824378,-74.141047861841528,0,,0
Z_56431_STOP,188A07,CL 10 - KR 79,4.6446046494845135,-74.142584177101355,0,,0
Z_56770_STOP,410A07,CL 10 - KR 86,4.649773238299276,-74.148322880594861,0,,0
Z_56771_STOP,411A07,CL 10 - KR 86,4.6497302382876349,-74.14793688040379,0,,0
Z_56755_STOP,395A07,CL 10 - KR 88,4.6518912383422935,-74.150384881583747,0,,0
Z_56757_STOP,397A07,CL 10 - KR 93,4.6534172383807721,-74.151976882343419,0,,0
Z_56753_STOP,393A07,CL 10 - KR 93,4.6533942383788736,-74.152053882384649,0,,0
Z_56494_STOP,139A01,CL 106 - KR 8,4.6867159419996076,-74.03895064648448,0,,0
Z_56516_STOP,249A07,CL 12 - KR 33,4.6148398319194355,-74.096429780009814,0,,0
Z_56514_STOP,246A07,CL 12 - KR 37,4.6173046661864783,-74.09915089405483,0,,0
Z_56515_STOP,247A07,CL 12 - KR 37,4.6173223784365254,-74.098940589360666,0,,0
Z_56563_STOP,277A07,CL 12 - KR 39,4.6192198234680486,-74.1012718703576,0,,0
Z_56761_STOP,401A07,CL 12 - KR 78,4.64839823790448,-74.134894873719674,0,,0
Z_56467_STOP,206A07,CL 13 - KR 78,4.6484412379096476,-74.13513887385227,0,,0
Z_56402_STOP,095A01,CL 140 - AK 7,4.7164545469550738,-74.02976848813644,0,,0
Z_57414_STOP,670A01,CL 146 - KR 9,4.7241942338451866,-74.032911811276009,0,,0
Z_57412_STOP,667A01,CL 147 - KR 9,4.725710233843734,-74.0332338114455,0,,0
Z_57701_STOP,701A01,CL 153 - KR7C,4.7281679750667465,-74.026378766120345,0,,0
Z_57045_STOP,391A01,CL 155 - AK 9,4.7332190286557774,-74.033100952645555,0,,0
Z_57046_STOP,393A01,CL 155 - KR 9,4.7308435414255419,-74.03113798620538,0,,0
Z_56982_STOP,334A01,CL 159 - KR 8,4.7347082335765638,-74.028137807815284,0,,0
Z_56991_STOP,351A01,CL 162 - AK 7,4.7370810710045115,-74.023953311026418,0,,0
Z_56990_STOP,349A01,CL 162 - KR 8,4.7380897939577915,-74.027214816148813,0,,0
Z_56404_STOP,097A01,CL 165 - AK 7,4.7411030526305833,-74.023031762740985,0,,0
Z_56403_STOP,096A01,CL 165 - AK 7,4.74132579863577,-74.023736280573985,0,,0
Z_57290_STOP,605A01,CL 167 - KR 4,4.743312652320105,-74.020680579009536,0,,0
Z_57293_STOP,608A01,CL 167 - KR 5,4.7432957793744643,-74.020863324421541,0,,0
Z_57345_STOP,610A01,CL 167D - AK7,4.7448383033304067,-74.023264986622578,0,,0
Z_58993_STOP,878A00,CL 17 - KR 25,4.6136089758778134,-74.0872308071625,0,,0
Z_56507_STOP,152A01,CL 170 - AK 7,4.7467985070403023,-74.023197355524431,0,,0
Z_57108_STOP,442A01,CL 175 - KR 6,4.754052233195714,-74.02339080410448,0,,0
Z_57109_STOP,443A01,CL 175 - KR 7,4.7541452331977752,-74.02341880411899,0,,0
Z_58048_STOP,688A01,CL 180 - KR 7,4.7562309749212952,-74.025885765796872,0,,0
Z_58049_STOP,689A01,CL 181 - KR 8,4.7572399749267786,-74.029293768244557,0,,0
Z_57700_STOP,700A01,CL 185 - KR 1,4.7595067387294572,-74.016560270987341,0,,0
Z_58223_STOP,913V01,CL 185 - KR 1,4.7596391033276211,-74.016554272219224,0,,0
Z_58759_STOP,706A01,CL 185 - KR 1,4.7578589748740532,-74.015891758512453,0,,0
Z_57401_STOP,655A01,CL 186 - AK 7,4.7627166014370355,-74.027655394937611,0,,0
Z_57104_STOP,439A01,CL 187 - KR 9,4.7639642333759209,-74.032865810189762,0,,0
T_11928_STOP,287A02,CL 187 KR 54D,4.7648199885746747,-74.049568547589573,0,,0
Z_57182_STOP,501A01,CL 188 - AK 9,4.76479160493445,-74.031564834872881,0,,0
Z_56986_STOP,343A01,CL 193 - KR 8,4.7698688674351706,-74.0292133328677,0,,0
Z_58796_STOP,411A00,CL 1B - AK 27,4.5956463052646113,-74.100261124968924,0,,0
Z_57263_STOP,204A00,CL 1F - KR 24,4.5958634892103305,-74.096203155989457,0,,0
Z_57266_STOP,207A00,CL 1F - KR 25,4.5964964685160083,-74.098152219941525,0,,0
Z_57265_STOP,206A00,CL 1F - KR 26,4.5977162271343284,-74.099737140475568,0,,0
Z_54603_STOP,517A08,CL 1F - KR 31,4.6011342773290149,-74.1041900199898,0,,0
Z_57668_STOP,433A00,CL 2 - KR 12A,4.59303887849637,-74.086250202820793,0,,0
Z_57665_STOP,429A00,CL 2 - KR 20A,4.596747839568966,-74.093702024467689,0,,0
Z_57666_STOP,430A00,CL 2 - KR 24A,4.5975649526303268,-74.09618825240176,0,,0
Z_57664_STOP,425A00,CL 2 - KR 25A,4.598714414307512,-74.097593659982564,0,,0
Z_57660_STOP,421A00,CL 2 - KR 27A,4.60056707280782,-74.099941341329213,0,,0
Z_57831_STOP,800A00,CL 2 - KR 29B,4.601882145015634,-74.101579073402434,0,,0
Z_54826_STOP,613A08,CL 2 - KR 31A,4.6032191162884732,-74.103662852798735,0,,0
Z_54827_STOP,614A08,CL 2 - KR 32A,4.6042859436306376,-74.105227955534133,0,,0
Z_54828_STOP,615A08,CL 2 - KR 35A,4.6060594390715366,-74.107559921015238,0,,0
Z_54570_STOP,480A08,CL 2 - TV 53A,4.6144542378211435,-74.120027866698052,0,,0
Z_54571_STOP,481A08,CL 2 - TV 53A,4.6146432378141551,-74.120100866736635,0,,0
Z_59037_STOP,978V08,CL 2 - TV 56A,4.616974975970197,-74.122841495533891,0,,0
Z_53353_STOP,273A06,CL 21 - KR 42,4.6289674849743552,-74.096653943884689,0,,0
Z_58653_STOP,480A06,CL 22 - KR 93,4.669362975737295,-74.133528835098488,0,,0
Z_58844_STOP,485A06,CL 22 - KR 94,4.6698769757350611,-74.134648835734779,0,,0
Z_57245_STOP,190A00,CL 24 - AK 10,4.6104699418630846,-74.071157977340121,0,,0
Z_57706_STOP,867A00,CL 24 - KR 25,4.620506236518942,-74.079857843613382,0,,0
Z_53073_STOP,122A06,CL 25 - KR 33,4.6278413809677694,-74.086946249488264,0,,0
Z_53071_STOP,120A06,CL 25 - KR 39,4.6320095201330593,-74.089939591552309,0,,0
Z_53072_STOP,121A06,CL 25 - KR 39,4.6322018112605994,-74.089809320213831,0,,0
Z_55961_STOP,542A13,CL 2A - KR 2A,4.5872528622226589,-74.075982716124329,0,,0
Z_57261_STOP,202A00,CL 3 - KR 20A,4.59803597016175,-74.093074330257551,0,,0
Z_56880_STOP,033A00,CL 3 - KR 29A,4.6031122791548809,-74.100085414135165,0,,0
Z_53678_STOP,038A08,CL 3 - KR 30A,4.6039873643250333,-74.101872312537068,0,,0
Z_54580_STOP,493A08,CL 3 - KR 72D,4.6259706557367508,-74.140935947167137,0,,0
Z_54576_STOP,489A08,CL 3 - KR 78B,4.6280917245797992,-74.1465565132049,0,,0
Z_57262_STOP,203A00,CL 3 - TV 20A,4.5986214519040445,-74.09370684745754,0,,0
Z_56961_STOP,093A00,CL 34 - AK 13,4.6222407584993093,-74.06878039874627,0,,0
Z_56519_STOP,253A07,CL 4D - KR 55,4.6224575212771439,-74.116700708341156,0,,0
Z_56762_STOP,402A07,CL 4D - KR 62,4.6244492376814872,-74.119242866002622,0,,0
Z_56525_STOP,260A07,CL 4F - KR 53,4.6194142375481038,-74.1129498626844,0,,0
Z_57747_STOP,533A00,CL 52 - KR 18,4.6399969753645607,-74.070302418838935,0,,0
